[
  {
    "unformatted": "המלך ג'ורג' 20 ירושלים, משביר י-ם",
    "location": {
      "lat": 31.78153,
      "lng": 35.21602
    },
    "formatted": "המלך ג'ורג' 20, ירושלים, 9426208, ישראל",
    "city": "ירושלים",
    "lastUsedTimestamp": "2024-02-05T12:56:08.391Z"
  },
  {
    "unformatted": "העליה השניה 8 חיפה, בי\"ח רמב\"ם - קניון סגול",
    "location": {
      "lat": 32.8329875,
      "lng": 34.9857066
    },
    "formatted": "העלייה השנייה 8, חיפה, 3109601, ישראל",
    "city": "חיפה",
    "lastUsedTimestamp": "2024-02-05T09:42:22.889Z"
  },
  {
    "unformatted": "התיכון 39 חיפה, מרכז דתי - באולם מנחם",
    "location": {
      "lat": 32.7907417,
      "lng": 35.0159917
    },
    "formatted": "התיכון 39, חיפה, ישראל",
    "city": "חיפה",
    "lastUsedTimestamp": "2023-11-01T13:52:24.903Z"
  },
  {
    "unformatted": "מגדל העמק, פרץ סנטר",
    "location": {
      "lat": 32.6780967,
      "lng": 35.2431759
    },
    "formatted": "שדרות שאול עמור 77, מגדל העמק, ישראל",
    "city": "מגדל העמק",
    "lastUsedTimestamp": "2024-02-05T12:56:08.392Z"
  },
  {
    "unformatted": "החשמונאים 75 קרית מוצקין, - תחנת מד\"א",
    "location": {
      "lat": 32.8440668,
      "lng": 35.0802042
    },
    "formatted": "77,, HaHashmona'im St 75, Kiryat Motskin, ישראל",
    "city": "קרית מוצקין",
    "lastUsedTimestamp": "2024-02-05T12:56:08.392Z"
  },
  {
    "unformatted": "מינץ 7 נתניה, - תחנת מד\"א",
    "location": {
      "lat": 32.3284579,
      "lng": 34.8645215
    },
    "formatted": "בנימין מינץ 7, נתניה, ישראל",
    "city": "נתניה",
    "lastUsedTimestamp": "2024-02-05T12:56:08.392Z"
  },
  {
    "unformatted": "נחל אלכסנדר 2 צור יצחק, מרכז קהילתי",
    "location": {
      "lat": 32.239628,
      "lng": 34.994211
    },
    "formatted": "צור יצחק, ישראל",
    "city": "צור יצחק",
    "lastUsedTimestamp": "2023-12-12T18:50:14.015Z"
  },
  {
    "unformatted": "שריד, מועדון לחבר",
    "location": {
      "lat": 32.663061,
      "lng": 35.2247569
    },
    "formatted": "שריד, ישראל",
    "city": "שריד",
    "lastUsedTimestamp": "2023-12-20T21:52:38.297Z"
  },
  {
    "unformatted": "שד' לכיש קרית גת, מרכז מסחרי- מול קניון לב העיר",
    "location": {
      "lat": 31.6088873,
      "lng": 34.7729488
    },
    "formatted": "קרית גת, ישראל",
    "city": "קרית גת",
    "lastUsedTimestamp": "2024-02-05T12:56:08.392Z"
  },
  {
    "unformatted": "אבני נזר 59 מודיעין עילית, אשכול פיס",
    "location": {
      "lat": 31.930604,
      "lng": 35.0397468
    },
    "formatted": "אבני נזר 59, מודיעין עילית",
    "city": "מודיעין עילית",
    "lastUsedTimestamp": "2023-11-30T16:44:37.681Z"
  },
  {
    "unformatted": "דרך משה פלימן 4 חיפה, קניון חיפה מול קסטרו",
    "location": {
      "lat": 32.7896187,
      "lng": 34.9652439
    },
    "formatted": "דרך משה פלימן 4, חיפה, 3508416, ישראל",
    "city": "חיפה",
    "lastUsedTimestamp": "2024-01-18T21:52:31.021Z"
  },
  {
    "unformatted": "נאות מרדכי, בית-אכסי",
    "location": {
      "lat": 33.159785,
      "lng": 35.595602
    },
    "formatted": "נאות מרדכי, ישראל",
    "city": "נאות מרדכי",
    "lastUsedTimestamp": "2023-12-07T11:07:28.482Z"
  },
  {
    "unformatted": "סלמה, מתנ\"ס",
    "location": {
      "lat": 32.895347,
      "lng": 35.370184
    },
    "formatted": "סלאמה",
    "city": "סלאמה",
    "lastUsedTimestamp": "2023-12-07T13:00:10.039Z"
  },
  {
    "unformatted": "ד.נ. גלבוע מולדת, חדר אוכל",
    "location": {
      "lat": 32.586196,
      "lng": 35.438941
    },
    "formatted": "מולדת, ישראל",
    "city": "מולדת",
    "lastUsedTimestamp": "2023-11-23T14:52:33.064Z"
  },
  {
    "unformatted": "חיפה, מרכז חורב ליד מאפית אריאל",
    "location": {
      "lat": 32.78460454662827,
      "lng": 34.987120821454766
    },
    "formatted": "חורב 13, חיפה, ישראל",
    "city": "חיפה",
    "lastUsedTimestamp": "2024-02-05T12:56:08.392Z"
  },
  {
    "unformatted": "חורפיש, היכל התרבות",
    "location": {
      "lat": 33.0166132,
      "lng": 35.3467561
    },
    "formatted": "1, Hurfeish, ישראל",
    "city": "חורפיש",
    "lastUsedTimestamp": "2023-11-20T13:52:50.705Z"
  },
  {
    "unformatted": "בית העם",
    "location": {
      "lat": 31.8965818,
      "lng": 34.8164685
    },
    "formatted": "יעקב 48, רחובות, ישראל",
    "city": "בית העם",
    "lastUsedTimestamp": "2024-01-01T07:34:57.431Z"
  },
  {
    "unformatted": "חצרים, מועדון",
    "location": {
      "lat": 31.2390587,
      "lng": 34.7167409
    },
    "formatted": "חצרים, 8542000, ישראל",
    "city": "חצרים",
    "lastUsedTimestamp": "2023-12-31T21:52:28.291Z"
  },
  {
    "unformatted": "חיבת ציון 16 רמת גן, תיאטרון רמת גן",
    "location": {
      "lat": 32.0789835,
      "lng": 34.8217602
    },
    "formatted": "חיבת ציון 16, רמת גן, 5240808, ישראל",
    "city": "רמת גן",
    "lastUsedTimestamp": "2023-11-23T14:52:33.064Z"
  },
  {
    "unformatted": "פרדס חנה כרכור, במרכז ליד הדואר",
    "location": {
      "lat": 32.4750891,
      "lng": 34.9737915
    },
    "formatted": "דרך הבנים 16, פרדס חנה כרכור, ישראל",
    "city": "פרדס חנה כרכור",
    "lastUsedTimestamp": "2023-12-17T11:06:35.994Z"
  },
  {
    "unformatted": "יסוד המעלה, בית ראשונים",
    "location": {
      "lat": 33.06085079318132,
      "lng": 35.60596414716416
    },
    "formatted": "יסוד המעלה",
    "city": "יסוד המעלה",
    "lastUsedTimestamp": "2023-11-07T10:27:04.722Z"
  },
  {
    "unformatted": "מורשת, אולם חנה",
    "location": {
      "lat": 32.8258373,
      "lng": 35.2320268
    },
    "formatted": "מורשת, ישראל",
    "city": "מורשת",
    "lastUsedTimestamp": "2023-12-13T11:25:55.269Z"
  },
  {
    "unformatted": "מגאר, תחנת דלק פז",
    "location": {
      "lat": 32.879853,
      "lng": 35.4284567
    },
    "formatted": "כביש 807, מע'אר, ישראל",
    "city": "מגאר",
    "lastUsedTimestamp": "2024-02-05T12:56:08.392Z"
  },
  {
    "unformatted": "בית אריה, מתנ\"ס בית אריה",
    "location": {
      "lat": 32.040059,
      "lng": 35.049472
    },
    "formatted": "בית אריה",
    "city": "בית אריה",
    "lastUsedTimestamp": "2023-11-20T13:52:50.705Z"
  },
  {
    "unformatted": "בני דרור, מועדון לחבר",
    "location": {
      "lat": 32.2620756,
      "lng": 34.9015184
    },
    "formatted": "חרוב, בני דרור, ישראל",
    "city": "בני דרור",
    "lastUsedTimestamp": "2023-11-28T13:52:27.888Z"
  },
  {
    "unformatted": "דרך נילי בנימינה גבעת עדה, במתנ\"ס",
    "location": {
      "lat": 32.5218177,
      "lng": 34.9392599
    },
    "formatted": "בנימינה גבעת עדה, ישראל",
    "city": "בנימינה גבעת עדה",
    "lastUsedTimestamp": "2023-11-09T14:52:37.793Z"
  },
  {
    "unformatted": "כפר רופין, מועדון",
    "location": {
      "lat": 32.4598484,
      "lng": 35.5583123
    },
    "formatted": "kfar rupin, כפר רופין, 1085000, ישראל",
    "city": "כפר רופין",
    "lastUsedTimestamp": "2023-11-29T14:33:13.383Z"
  },
  {
    "unformatted": "גבעת אבני, אולם גדול מתחת לביהכנ\"ס",
    "location": {
      "lat": 32.775382,
      "lng": 35.436154
    },
    "formatted": "גבעת אבני, ישראל",
    "city": "גבעת אבני",
    "lastUsedTimestamp": "2023-10-31T13:26:09.364Z"
  },
  {
    "unformatted": "דרך לב השרון פינת השקמה צורן, המתנ\"ס החדש",
    "location": {
      "lat": 32.2879295,
      "lng": 34.93958569999999
    },
    "formatted": "דרך לב השרון 1, קדימה צורן, ישראל",
    "city": "צורן",
    "lastUsedTimestamp": "2023-11-07T08:43:45.845Z"
  },
  {
    "unformatted": "גלעד, מועדון",
    "location": {
      "lat": 32.558247993325956,
      "lng": 35.076507058476295
    },
    "formatted": "גלעד, מועדון",
    "city": "גלעד",
    "lastUsedTimestamp": "2023-11-28T13:52:27.888Z"
  },
  {
    "unformatted": "ג'וליס, בית העם",
    "location": {
      "lat": 32.9443425,
      "lng": 35.1857616
    },
    "formatted": "ג'וליס, ישראל",
    "city": "ג'וליס",
    "lastUsedTimestamp": "2023-11-06T12:14:41.851Z"
  },
  {
    "unformatted": "מנחם בגין כפר יונה, מתנ\"ס כפר יונה",
    "location": {
      "lat": 32.3163889,
      "lng": 34.9355556
    },
    "formatted": "שדרות מנחם בגין, כפר יונה, ישראל",
    "city": "כפר יונה",
    "lastUsedTimestamp": "2023-11-16T14:25:40.706Z"
  },
  {
    "unformatted": "אום אל גנם, מתנ\"ס",
    "location": {
      "lat": 32.6767639,
      "lng": 35.3896012
    },
    "formatted": "שיבלי אום אלג, נם, שבלי - אום אל-גנם, ישראל",
    "city": "אום אל גנם",
    "lastUsedTimestamp": "2023-11-02T12:43:18.559Z"
  },
  {
    "unformatted": "יונתן, מועדון",
    "location": {
      "lat": 32.93794952369972,
      "lng": 35.79429218781491
    },
    "formatted": "יונתן",
    "city": "יונתן",
    "lastUsedTimestamp": "2023-12-10T10:08:22.171Z"
  },
  {
    "unformatted": "בית חשמונאי, מועדון הישוב",
    "location": {
      "lat": 31.8873359,
      "lng": 34.9207067
    },
    "formatted": "בית חשמונאי, ישראל",
    "city": "בית חשמונאי",
    "lastUsedTimestamp": "2023-12-18T21:52:37.128Z"
  },
  {
    "unformatted": "קדומים צפון קדומים, אולם שירת מרים",
    "location": {
      "lat": 32.21539281045485,
      "lng": 35.15892418719246
    },
    "formatted": "קדומים",
    "city": "קדומים",
    "lastUsedTimestamp": "2023-12-26T20:08:40.242Z"
  },
  {
    "unformatted": "יובלים, מועדון",
    "location": {
      "lat": 32.0016462,
      "lng": 34.770974
    },
    "formatted": "יצחק רבין 20, חולון, 5845120, ישראל",
    "city": "יובלים",
    "lastUsedTimestamp": "2023-11-26T12:41:07.690Z"
  },
  {
    "unformatted": "ד.נ משגב מנוף, מועדון לחבר",
    "location": {
      "lat": 32.85432217259906,
      "lng": 35.236534764740334
    },
    "formatted": "מנוף, ישראל",
    "city": "מנוף",
    "lastUsedTimestamp": "2023-12-19T21:52:39.402Z"
  },
  {
    "unformatted": "איילת השחר, מועדון לחבר",
    "location": {
      "lat": 33.0208818,
      "lng": 35.5770504
    },
    "formatted": "Unnamed Road, איילת השחר, Ayelet HaShahar, ישראל",
    "city": "איילת השחר",
    "lastUsedTimestamp": "2023-11-26T12:41:07.691Z"
  },
  {
    "unformatted": "פרוד, מועדון",
    "location": {
      "lat": 32.9328557,
      "lng": 35.4342069
    },
    "formatted": "פרוד, ישראל",
    "city": "פרוד",
    "lastUsedTimestamp": "2023-11-19T12:41:18.692Z"
  },
  {
    "unformatted": "התדהר 14 רעננה, בית תדהר",
    "location": {
      "lat": 32.1954928,
      "lng": 34.8849634
    },
    "formatted": "רעננה, ישראל",
    "city": "רעננה",
    "lastUsedTimestamp": "2023-11-14T12:59:29.985Z"
  },
  {
    "unformatted": "מעגן מיכאל, מועדון אסם",
    "location": {
      "lat": 32.5563622,
      "lng": 34.9174571
    },
    "formatted": "מעגן מיכאל, ישראל",
    "city": "מעגן מיכאל",
    "lastUsedTimestamp": "2023-11-14T12:59:29.984Z"
  },
  {
    "unformatted": "עמק איילון 49 שוהם, הבית הסגול",
    "location": {
      "lat": 32.0008333,
      "lng": 34.9452778
    },
    "formatted": "שוהם, ישראל",
    "city": "שוהם",
    "lastUsedTimestamp": "2024-01-04T21:52:30.937Z"
  },
  {
    "unformatted": "בר הופמן 12 תל אביב יפו, בית עמנואל",
    "location": {
      "lat": 32.0565946,
      "lng": 34.7626531
    },
    "formatted": "אוארבך 8, תל אביב יפו, ישראל",
    "city": "תל אביב יפו",
    "lastUsedTimestamp": "2023-12-07T13:00:10.040Z"
  },
  {
    "unformatted": "ירוחם, מתנ\"ס ירוחם",
    "location": {
      "lat": 30.9859596,
      "lng": 34.9325605
    },
    "formatted": "צבי בורנשטיין 918, ירוחם, ישראל",
    "city": "ירוחם",
    "lastUsedTimestamp": "2023-11-02T12:43:18.559Z"
  },
  {
    "unformatted": "ד. געש געש, מועדון לחבר",
    "location": {
      "lat": 32.2311977,
      "lng": 34.8266937
    },
    "formatted": "חמי, געש, 6095000, ישראל",
    "city": "געש",
    "lastUsedTimestamp": "2023-12-14T13:42:38.253Z"
  },
  {
    "unformatted": "הרפואה 7 אשדוד, אסותא אשדוד",
    "location": {
      "lat": 31.7789552,
      "lng": 34.6570806
    },
    "formatted": "הרפואה 7, אשדוד, 7747629, ישראל",
    "city": "אשדוד",
    "lastUsedTimestamp": "2023-12-10T10:08:22.170Z"
  },
  {
    "unformatted": "סאג'ור, בית העם",
    "location": {
      "lat": 32.942245,
      "lng": 35.3422805
    },
    "formatted": "סאג'ור, ישראל",
    "city": "סאג'ור",
    "lastUsedTimestamp": "2023-11-13T12:44:14.143Z"
  },
  {
    "unformatted": "במרכז חוגים ליד בית הכנסת",
    "location": {
      "lat": 33.9147186,
      "lng": -84.31574239999999
    },
    "formatted": "4276 Chamblee Dunwoody Rd, Atlanta, GA 30341, ארצות הברית",
    "city": "במרכז חוגים ליד בית הכנסת",
    "lastUsedTimestamp": "2023-12-14T11:52:39.083Z"
  },
  {
    "unformatted": "גזית, מועדון",
    "location": {
      "lat": 32.6392624,
      "lng": 35.4481194
    },
    "formatted": "גזית, ישראל",
    "city": "גזית",
    "lastUsedTimestamp": "2023-12-02T18:33:01.790Z"
  },
  {
    "unformatted": "לאן 25 רמת גן, המקלט בגן יהודה",
    "location": {
      "lat": 32.0819624,
      "lng": 34.8082391
    },
    "formatted": "גן יהודה, לאן 25, רמת גן, ישראל",
    "city": "רמת גן",
    "lastUsedTimestamp": "2023-11-21T14:08:00.025Z"
  },
  {
    "unformatted": "דרך מנחם בגין 125 תל אביב יפו, קרית הממשלה - תל אביב",
    "location": {
      "lat": 32.072959,
      "lng": 34.7891558
    },
    "formatted": "דרך מנחם בגין 125, תל אביב יפו, ישראל",
    "city": "תל אביב יפו",
    "lastUsedTimestamp": "2024-01-30T21:52:32.330Z"
  },
  {
    "unformatted": "דוד רמז 69 רחובות, מד\"א רחובות, - תחנת מד\"א",
    "location": {
      "lat": 31.8948356,
      "lng": 34.8045349
    },
    "formatted": "דוד רמז 71, רחובות, ישראל",
    "city": "רחובות",
    "lastUsedTimestamp": "2024-02-05T12:56:08.392Z"
  },
  {
    "unformatted": "יגור, מועדון",
    "location": {
      "lat": 32.7410517,
      "lng": 35.0786985
    },
    "formatted": "יגור, ישראל",
    "city": "יגור",
    "lastUsedTimestamp": "2023-11-22T15:42:22.412Z"
  },
  {
    "unformatted": "ד.נ חפר מגל, מועדון",
    "location": {
      "lat": 32.3998786,
      "lng": 34.8951085
    },
    "formatted": "המסיק 8 פארק תעשיות עמק חפר, ישראל",
    "city": "מגל",
    "lastUsedTimestamp": "2023-11-26T12:41:07.690Z"
  },
  {
    "unformatted": "עמק איילון 32 שוהם, אולם בית תרבות",
    "location": {
      "lat": 32.0000453,
      "lng": 34.9459662
    },
    "formatted": "שדרות עמק איילון 32, שוהם, ישראל",
    "city": "שוהם",
    "lastUsedTimestamp": "2023-11-16T14:25:40.706Z"
  },
  {
    "unformatted": "הכרמל 20 ראשון לציון, בניין העיריה",
    "location": {
      "lat": 31.9619784,
      "lng": 34.8048233
    },
    "formatted": "הכרמל 20, ראשון לציון, ישראל",
    "city": "ראשון לציון",
    "lastUsedTimestamp": "2023-12-21T21:52:30.087Z"
  },
  {
    "unformatted": "שפיים, מועדון לחבר ליד חדר אוכל",
    "location": {
      "lat": 32.216586,
      "lng": 34.822409
    },
    "formatted": "שפיים, ישראל",
    "city": "שפיים",
    "lastUsedTimestamp": "2023-12-12T18:50:14.019Z"
  },
  {
    "unformatted": "כפר מסריק, מועדון",
    "location": {
      "lat": 32.891218,
      "lng": 35.098414
    },
    "formatted": "כפר מסריק, ישראל",
    "city": "כפר מסריק",
    "lastUsedTimestamp": "2023-12-17T21:52:36.602Z"
  },
  {
    "unformatted": "ד.נ. מנשה משמרות, במועדון לחבר",
    "location": {
      "lat": 32.486513,
      "lng": 34.983892
    },
    "formatted": "משמרות, ישראל",
    "city": "משמרות",
    "lastUsedTimestamp": "2023-12-19T21:52:39.402Z"
  },
  {
    "unformatted": "געתון, מועדון",
    "location": {
      "lat": 33.006075,
      "lng": 35.213831
    },
    "formatted": "געתון, 2513000, ישראל",
    "city": "געתון",
    "lastUsedTimestamp": "2023-12-20T21:52:38.298Z"
  },
  {
    "unformatted": "החוצבים 1 מבשרת ציון, מתנ\"ס מעוז ציון מבשרת ציון",
    "location": {
      "lat": 31.7931286,
      "lng": 35.1449122
    },
    "formatted": "שדרות החוצבים 1, מבשרת ציון, ישראל",
    "city": "מבשרת ציון",
    "lastUsedTimestamp": "2023-12-13T11:25:55.269Z"
  },
  {
    "unformatted": "סוקולוב 4 באר שבע, תחנת מד\"א ב\"ש",
    "location": {
      "lat": 31.2486618,
      "lng": 34.7920168
    },
    "formatted": "סוקולוב 4, באר שבע, ישראל",
    "city": "באר שבע",
    "lastUsedTimestamp": "2024-02-05T12:56:08.392Z"
  },
  {
    "unformatted": "טירת יהודה, אסם",
    "location": {
      "lat": 32.014905,
      "lng": 34.9337518
    },
    "formatted": "טירת יהודה, ישראל",
    "city": "טירת יהודה",
    "lastUsedTimestamp": "2023-11-01T13:52:24.903Z"
  },
  {
    "unformatted": "גיאה, מושב גיאה",
    "location": {
      "lat": 31.628467,
      "lng": 34.602678
    },
    "formatted": "גיאה, ישראל",
    "city": "גיאה",
    "lastUsedTimestamp": "2023-12-01T06:42:43.017Z"
  },
  {
    "unformatted": "שדה אילן, בית-העם",
    "location": {
      "lat": 32.7505114,
      "lng": 35.4224306
    },
    "formatted": "שדה אילן, ישראל",
    "city": "שדה אילן",
    "lastUsedTimestamp": "2024-02-05T12:56:08.393Z"
  },
  {
    "unformatted": "דרך שמחה גולן 9 חיפה, גרנד קניון - קומה 3 ליד המדרגות הנעות",
    "location": {
      "lat": 32.789711,
      "lng": 35.00782239999999
    },
    "formatted": "דרך שמחה גולן 54, חיפה, 3299001, ישראל",
    "city": "חיפה",
    "lastUsedTimestamp": "2024-02-05T12:56:08.392Z"
  },
  {
    "unformatted": "מבוא חמה, מועדון",
    "location": {
      "lat": 33.44852903890945,
      "lng": 32.05693494134149
    },
    "formatted": "bad_address",
    "city": "מבוא חמה",
    "lastUsedTimestamp": "2023-11-07T10:27:04.723Z"
  },
  {
    "unformatted": "אסתר המלכה מודיעין מכבים רעות, בית כנסת שערי יונה מנחם",
    "location": {
      "lat": 31.8840341,
      "lng": 35.0086473
    },
    "formatted": "אפרים 13, מודיעין מכבים רעות, ישראל",
    "city": "מודיעין מכבים רעות",
    "lastUsedTimestamp": "2023-12-18T21:52:37.129Z"
  },
  {
    "unformatted": "עכו, קאנטרי חוף התמרים - באולם",
    "location": {
      "lat": 32.916691,
      "lng": 35.082296
    },
    "formatted": "יהונתן החשמונאי 1, עכו, ישראל",
    "city": "עכו",
    "lastUsedTimestamp": "2023-12-12T18:50:14.015Z"
  },
  {
    "unformatted": "ירושלים, קניון מלחה ליד המשביר בקומה האמצעית",
    "location": {
      "lat": 31.7515163,
      "lng": 35.1872451
    },
    "formatted": "דרך אגודת ספורט בית\"ר 1, ירושלים, ישראל",
    "city": "ירושלים",
    "lastUsedTimestamp": "2023-11-14T12:59:29.984Z"
  },
  {
    "unformatted": "ברק 12 אריאל, בני עקיבא",
    "location": {
      "lat": 32.10661008349889,
      "lng": 35.18785623980176
    },
    "formatted": "אריאל",
    "city": "אריאל",
    "lastUsedTimestamp": "2024-01-10T21:52:35.331Z"
  },
  {
    "unformatted": "מחלקת אבידות באר שבע, אוני' בן גוריון",
    "location": {
      "lat": 31.261426,
      "lng": 34.7995546
    },
    "formatted": "שדרות דויד בן גוריון 1, באר שבע, ישראל",
    "city": "באר שבע",
    "lastUsedTimestamp": "2024-02-05T12:56:08.392Z"
  },
  {
    "unformatted": "גולדה מאיר 8 רעננה, שבט צופי נבו רעננה",
    "location": {
      "lat": 32.193989315384904,
      "lng": 34.84451673343593
    },
    "formatted": "גולדה מאיר 8, רעננה, ישראל",
    "city": "רעננה",
    "lastUsedTimestamp": "2023-12-28T21:52:34.866Z"
  },
  {
    "unformatted": "המחתרת 57 אבן יהודה, בסביום",
    "location": {
      "lat": 32.2764626,
      "lng": 34.8827458
    },
    "formatted": "המחתרת 57, אבן יהודה, ישראל",
    "city": "אבן יהודה",
    "lastUsedTimestamp": "2023-11-09T14:52:37.792Z"
  },
  {
    "unformatted": "ירמיהו 1 בית שמש, בית ספר אור יעל",
    "location": {
      "lat": 31.7011768,
      "lng": 34.9828021
    },
    "formatted": "ירמיהו הנביא 1, בית שמש, ישראל",
    "city": "בית שמש",
    "lastUsedTimestamp": "2023-11-06T12:14:41.851Z"
  },
  {
    "unformatted": "הושעיה, אר\"ת-מתחת לבית כנסת המרכזי",
    "location": {
      "lat": 32.7584354,
      "lng": 35.2864339
    },
    "formatted": "פאת שדה 22, הושעיה, ישראל",
    "city": "הושעיה",
    "lastUsedTimestamp": "2023-11-20T13:52:50.705Z"
  },
  {
    "unformatted": "ד.נ. אבטח יבנה, אולם אירועים",
    "location": {
      "lat": 31.891463,
      "lng": 34.7333639
    },
    "formatted": "שידלובסקי 3, יבנה, ישראל",
    "city": "יבנה",
    "lastUsedTimestamp": "2023-11-16T06:52:45.592Z"
  },
  {
    "unformatted": "עולש 2 יבנה, מרכז הצעירים",
    "location": {
      "lat": 31.8733743,
      "lng": 34.7344805
    },
    "formatted": "נופר 66, יבנה, ישראל",
    "city": "יבנה",
    "lastUsedTimestamp": "2024-01-29T11:17:21.131Z"
  },
  {
    "unformatted": "עמק האלה מול מ\"ס 13 מודיעין מכבים רעות, בית סחלבים",
    "location": {
      "lat": 31.9114581,
      "lng": 35.0110433
    },
    "formatted": "עמק האלה, מודיעין מכבים רעות, ישראל",
    "city": "מודיעין מכבים רעות",
    "lastUsedTimestamp": "2023-11-23T14:52:33.065Z"
  },
  {
    "unformatted": "באר שבע, במתנ\"ס ספורטיב שכונת רמות רח' הערים התאומות 20",
    "location": {
      "lat": 31.2806599,
      "lng": 34.7998167
    },
    "formatted": "שדרות הערים התאומות 20, באר שבע, ישראל",
    "city": "באר שבע",
    "lastUsedTimestamp": "2023-12-01T06:42:43.017Z"
  },
  {
    "unformatted": "אנגל 78 כפר סבא, דמרי סנטר-חלל סטודיו ק 1- צמוד למשרדי ההנהלה",
    "location": {
      "lat": 32.1981789,
      "lng": 34.8905237
    },
    "formatted": "אנגל 78, כפר סבא, ישראל",
    "city": "כפר סבא",
    "lastUsedTimestamp": "2023-12-19T21:52:39.402Z"
  },
  {
    "unformatted": "אלעזר בן יאיר 28 ערד, מתנ\"ס ערד",
    "location": {
      "lat": 31.2582711,
      "lng": 35.2090966
    },
    "formatted": "אלעזר בן יאיר 28, ערד, ישראל",
    "city": "ערד",
    "lastUsedTimestamp": "2023-11-16T14:25:40.705Z"
  },
  {
    "unformatted": "מרגנית 20 עומר, עומר",
    "location": {
      "lat": 33.44852903890945,
      "lng": 32.05693494134149
    },
    "formatted": "bad_address",
    "city": "עומר",
    "lastUsedTimestamp": "2023-11-16T14:25:40.706Z"
  },
  {
    "unformatted": "מעלה אדומים, קניון מעלה אדומים קומה 3",
    "location": {
      "lat": 31.7714714,
      "lng": 35.298434
    },
    "formatted": "דרך קדם 5, מעלה אדומים",
    "city": "מעלה אדומים",
    "lastUsedTimestamp": "2024-01-11T21:52:26.074Z"
  },
  {
    "unformatted": "ד.נ. שומרון קרני שומרון, מתנ\"ס- מול הקניון",
    "location": {
      "lat": 32.171553,
      "lng": 35.097462
    },
    "formatted": "קרני שומרון",
    "city": "קרני שומרון",
    "lastUsedTimestamp": "2023-11-05T12:40:08.003Z"
  },
  {
    "unformatted": "מבוא השקד 1 הר אדר, מתנ\"ס הר אדר",
    "location": {
      "lat": 31.8232939,
      "lng": 35.1309222
    },
    "formatted": "מבוא השקד 1, הר אדר",
    "city": "הר אדר",
    "lastUsedTimestamp": "2023-12-04T13:21:14.512Z"
  },
  {
    "unformatted": "ד.נ. נגב דבירה, בחדר אוכל",
    "location": {
      "lat": 33.44852903890945,
      "lng": 32.05693494134149
    },
    "formatted": "bad_address",
    "city": "דבירה",
    "lastUsedTimestamp": "2023-11-14T12:59:29.985Z"
  },
  {
    "unformatted": "קוטנר פינת שד' ירושלים לוד, מד\"א לוד-רמלה, - תחנת מד\"א",
    "location": {
      "lat": 31.9389251,
      "lng": 34.8857412
    },
    "formatted": "שדרות ירושלים, לוד, ישראל",
    "city": "לוד",
    "lastUsedTimestamp": "2023-12-08T08:45:09.635Z"
  },
  {
    "unformatted": "בן צבי 2 טבריה, שוק חן (קופת חולים מאוחדת)",
    "location": {
      "lat": 32.780262,
      "lng": 35.53753200000001
    },
    "formatted": "2, טבריה, ישראל",
    "city": "טבריה",
    "lastUsedTimestamp": "2023-11-30T16:44:37.682Z"
  },
  {
    "unformatted": "ירושלים, בית חולים שערי צדק - חדר אירוח קומה 4",
    "location": {
      "lat": 31.773199,
      "lng": 35.185261
    },
    "formatted": "שמואל בייט 12, ירושלים, 9103102, ישראל",
    "city": "ירושלים",
    "lastUsedTimestamp": "2024-02-05T12:56:08.392Z"
  },
  {
    "unformatted": "פסגות, מרכז פיס ישוב פסגות",
    "location": {
      "lat": 31.899797588516034,
      "lng": 35.22189875440851
    },
    "formatted": "פסגות מרכז",
    "city": "פסגות",
    "lastUsedTimestamp": "2024-01-04T21:52:30.937Z"
  },
  {
    "unformatted": "מצפה נבו 102 מעלה אדומים, בית הכנסת פני שמואל",
    "location": {
      "lat": 31.7944696,
      "lng": 35.3022288
    },
    "formatted": "מצפה נבו 102, מעלה אדומים",
    "city": "מעלה אדומים",
    "lastUsedTimestamp": "2023-12-04T13:21:14.512Z"
  },
  {
    "unformatted": "עראבה, בכביש הראשי בכניסה לבי\"ס אלבטוף ליד אולם נאגי אלעלי",
    "location": {
      "lat": 32.85869435233576,
      "lng": 35.33514604611879
    },
    "formatted": "רומת היב, ישראל",
    "city": "עראבה",
    "lastUsedTimestamp": "2024-02-01T21:52:39.421Z"
  },
  {
    "unformatted": "כפר ידידיה, בית העם",
    "location": {
      "lat": 32.3461657,
      "lng": 34.9000928
    },
    "formatted": "כפר ידידיה, ישראל",
    "city": "כפר ידידיה",
    "lastUsedTimestamp": "2023-12-18T21:52:37.129Z"
  },
  {
    "unformatted": "יזרעאל, מועדון ותיקים \"אור בגבעה\"",
    "location": {
      "lat": 32.56191778628656,
      "lng": 35.32117494110329
    },
    "formatted": "הזיתים 96, גבעת שמואל, ישראל",
    "city": "יזרעאל",
    "lastUsedTimestamp": "2023-12-06T14:25:10.543Z"
  },
  {
    "unformatted": "ידע עם 8 רמת גן, מכללת שנקר רמת גן",
    "location": {
      "lat": 32.0898023,
      "lng": 34.8027647
    },
    "formatted": "ידע עם 8, רמת גן, ישראל",
    "city": "רמת גן",
    "lastUsedTimestamp": "2024-01-25T21:52:25.176Z"
  },
  {
    "unformatted": "עין המפרץ, חדר אוכל",
    "location": {
      "lat": 32.902581,
      "lng": 35.09303999999999
    },
    "formatted": "עין המפרץ, ישראל",
    "city": "עין המפרץ",
    "lastUsedTimestamp": "2024-01-08T21:52:39.600Z"
  },
  {
    "unformatted": "המרפא 7 ירושלים, אורידיון מדטרוניק",
    "location": {
      "lat": 31.8024912,
      "lng": 35.2108405
    },
    "formatted": "המרפא 7, ירושלים, ישראל",
    "city": "ירושלים",
    "lastUsedTimestamp": "2023-11-05T12:40:08.003Z"
  },
  {
    "unformatted": "חיפה, רח' יצחק שדה 10 (תחנה נגישה), - תחנת מד\"א",
    "location": {
      "lat": 32.824678,
      "lng": 34.9882598
    },
    "formatted": "יצחק שדה 10, חיפה, ישראל",
    "city": "חיפה",
    "lastUsedTimestamp": "2024-02-05T12:56:08.392Z"
  },
  {
    "unformatted": "העצמאות 68 קרית גת, בית וקס",
    "location": {
      "lat": 31.6088356,
      "lng": 34.7676516
    },
    "formatted": "שדרות העצמאות 68, קרית גת, ישראל",
    "city": "קרית גת",
    "lastUsedTimestamp": "2023-12-13T11:25:55.269Z"
  },
  {
    "unformatted": "להבים, מועדון הנוער ליד הקאנטרי",
    "location": {
      "lat": 31.373835,
      "lng": 34.816952
    },
    "formatted": "להבים, ישראל",
    "city": "להבים",
    "lastUsedTimestamp": "2023-11-01T08:28:26.747Z"
  },
  {
    "unformatted": "חלמיש, אולם שמחות מתחת לביה\"כ המרכזי חלמיש-נווה צוף",
    "location": {
      "lat": 32.004381261774014,
      "lng": 35.122429856728544
    },
    "formatted": "חלמיש",
    "city": "חלמיש",
    "lastUsedTimestamp": "2023-12-20T21:52:38.298Z"
  },
  {
    "unformatted": "דימונה, מרכז דמרי סנטר ליד גלידת גולדה",
    "location": {
      "lat": 31.073028,
      "lng": 35.0325532
    },
    "formatted": "גולדה מאיר/המעפיל, דימונה, ישראל",
    "city": "דימונה",
    "lastUsedTimestamp": "2023-12-15T21:52:28.880Z"
  },
  {
    "unformatted": "טבריה, ביג דנילוף בכניסה הראשית",
    "location": {
      "lat": 32.790333613593994,
      "lng": 35.533051427181455
    },
    "formatted": "טבריה, ישראל",
    "city": "טבריה",
    "lastUsedTimestamp": "2024-02-05T12:56:08.392Z"
  },
  {
    "unformatted": "שדרות בן גוריון 12 מצפה רמון, מתנ\"ס מצפה רמון",
    "location": {
      "lat": 30.6109733,
      "lng": 34.801815
    },
    "formatted": "שדרות דוד בן גוריון 12, מצפה רמון, 80600, ישראל",
    "city": "מצפה רמון",
    "lastUsedTimestamp": "2023-11-22T15:42:22.412Z"
  },
  {
    "unformatted": "סח'נין, בניין העירייה",
    "location": {
      "lat": 32.86025415400198,
      "lng": 35.304903054383814
    },
    "formatted": "סח'נין, ישראל",
    "city": "סח'נין",
    "lastUsedTimestamp": "2024-02-05T12:56:08.392Z"
  },
  {
    "unformatted": "נחל גמלא 10 10 קרית אונו, ב\"ס אביגדור ורשה",
    "location": {
      "lat": 32.0528988,
      "lng": 34.8560467
    },
    "formatted": "נחל גמלא 10, קרית אונו, ישראל",
    "city": "קרית אונו",
    "lastUsedTimestamp": "2023-11-26T12:41:07.690Z"
  },
  {
    "unformatted": "נוקדים, בחדר חוגים החדש ישוב נוקדים",
    "location": {
      "lat": 31.645331,
      "lng": 35.244064
    },
    "formatted": "נוקדים",
    "city": "נוקדים",
    "lastUsedTimestamp": "2023-12-13T11:25:55.270Z"
  },
  {
    "unformatted": "שד' הרצל 137 ירושלים, מנהל קהילתי בית הכרם בשיתוף הצופים",
    "location": {
      "lat": 31.7768327,
      "lng": 35.1863789
    },
    "formatted": "שדרות הרצל 137, ירושלים, 9103101, ישראל",
    "city": "ירושלים",
    "lastUsedTimestamp": "2023-11-23T14:52:33.067Z"
  },
  {
    "unformatted": "ירושלים, גן טכנולוגי מלחה - בנין 2 ליד קפה תמרה",
    "location": {
      "lat": 31.7498445,
      "lng": 35.1860118
    },
    "formatted": "הגן הטכנולוגי, דרך אגודת ספורט הפועל 2, ירושלים, ישראל",
    "city": "ירושלים",
    "lastUsedTimestamp": "2023-12-13T11:25:55.270Z"
  },
  {
    "unformatted": "הרוקמים 26 חולון, לובי בניין B עזריאלי חולון",
    "location": {
      "lat": 32.0077569,
      "lng": 34.8006392
    },
    "formatted": "הרוקמים 26, חולון, ישראל",
    "city": "חולון",
    "lastUsedTimestamp": "2023-12-14T13:35:11.277Z"
  },
  {
    "unformatted": "פרישמן 23 תל אביב יפו, בית הכנסת הבינלאומי \"בית אל\"",
    "location": {
      "lat": 32.0800163,
      "lng": 34.770978
    },
    "formatted": "פרישמן 23, תל אביב, ישראל",
    "city": "תל אביב יפו",
    "lastUsedTimestamp": "2023-12-12T18:50:14.015Z"
  },
  {
    "unformatted": "מגדל, באולם המועצה",
    "location": {
      "lat": 33.44852903890945,
      "lng": 32.05693494134149
    },
    "formatted": "bad_address",
    "city": "מגדל",
    "lastUsedTimestamp": "2023-11-13T12:44:14.143Z"
  },
  {
    "unformatted": "המייסדים 1 קרית עקרון, מתנ\"ס",
    "location": {
      "lat": 31.8596605,
      "lng": 34.823429
    },
    "formatted": "המייסדים 1, קרית עקרון, ישראל",
    "city": "קרית עקרון",
    "lastUsedTimestamp": "2023-11-21T14:08:00.024Z"
  },
  {
    "unformatted": "מוצב נועם",
    "location": {
      "lat": 31.568567,
      "lng": 34.788161
    },
    "formatted": "נועם, ישראל",
    "city": "מוצב נועם",
    "lastUsedTimestamp": "2023-11-06T09:09:14.722Z"
  },
  {
    "unformatted": "אפעל 35 פתח תקווה, בנין אדגר",
    "location": {
      "lat": 32.0982894,
      "lng": 34.84803
    },
    "formatted": "אפעל 35, פתח תקווה, ישראל",
    "city": "פתח תקווה",
    "lastUsedTimestamp": "2023-11-27T15:09:03.196Z"
  },
  {
    "unformatted": "משה שרת 1 ירושלים, מכינת ארז ירושלים",
    "location": {
      "lat": 31.756621,
      "lng": 35.1834127
    },
    "formatted": "משה שרת 1, ירושלים, ישראל",
    "city": "ירושלים",
    "lastUsedTimestamp": "2023-12-07T13:00:10.045Z"
  },
  {
    "unformatted": "נוף הגליל, דודג' סנטר במרכז המתחם מול סופר פארם",
    "location": {
      "lat": 32.69315354378295,
      "lng": 35.30500500291231
    },
    "formatted": "נוף הגליל, דודג׳ סנטר",
    "city": "נוף הגליל",
    "lastUsedTimestamp": "2024-02-05T12:56:08.392Z"
  },
  {
    "unformatted": "דרך הים 3 גני תקווה, בית ספר יובלים",
    "location": {
      "lat": 32.06433771772854,
      "lng": 34.87774940293308
    },
    "formatted": "גני תקוה בית ספר יובלים",
    "city": "גני תקווה",
    "lastUsedTimestamp": "2023-12-21T21:52:30.086Z"
  },
  {
    "unformatted": "שבטי ישראל פינת בית השואבה רמת השרון, מתנ\"ס קריית הצעירים",
    "location": {
      "lat": 32.1302326,
      "lng": 34.8524116
    },
    "formatted": "רחוב שבטי ישראל פינת, בית השואבה, רמת השרון, ישראל",
    "city": "רמת השרון",
    "lastUsedTimestamp": "2023-11-09T14:52:37.794Z"
  },
  {
    "unformatted": "כרמיאל, מתחם ביג במרכז החניה",
    "location": {
      "lat": 32.92742185601972,
      "lng": 35.32228989234057
    },
    "formatted": "כרמיאל, ישראל",
    "city": "כרמיאל",
    "lastUsedTimestamp": "2024-02-05T12:56:08.392Z"
  },
  {
    "unformatted": "כפר תבור, כיתת גלבוע בכניסה למתנ\"ס בית יגאל אלון",
    "location": {
      "lat": 32.687346,
      "lng": 35.419972
    },
    "formatted": "כפר תבור, ישראל",
    "city": "כפר תבור",
    "lastUsedTimestamp": "2023-11-01T13:52:24.903Z"
  },
  {
    "unformatted": "בן צבי פינת הרצל 33 בית שמש, תחנת מד\"א",
    "location": {
      "lat": 31.7488374,
      "lng": 34.9923189
    },
    "formatted": "הרצל 33, בית שמש, ישראל",
    "city": "בית שמש",
    "lastUsedTimestamp": "2023-12-14T13:42:38.252Z"
  },
  {
    "unformatted": "זאב ז'בוטינסקי 72 פתח תקווה, קניון הגדול",
    "location": {
      "lat": 32.0932981,
      "lng": 34.8653481
    },
    "formatted": "רחוב זאב ז'בוטינסקי 72, פתח תקווה, ישראל",
    "city": "פתח תקווה",
    "lastUsedTimestamp": "2023-11-09T14:52:37.793Z"
  },
  {
    "unformatted": "בית ג'ן, בית אופקים לעתיד ליד המועצה המקומית",
    "location": {
      "lat": 32.965655,
      "lng": 35.381268
    },
    "formatted": "בית ג'ן, ישראל",
    "city": "בית ג'ן",
    "lastUsedTimestamp": "2023-11-23T14:52:33.064Z"
  },
  {
    "unformatted": "הנרקיס 29 בית שמש, בית הכנסת פייגנסון שכונת נופי אביב",
    "location": {
      "lat": 31.736807,
      "lng": 34.9806951
    },
    "formatted": "הנרקיס 29, בית שמש, ישראל",
    "city": "בית שמש",
    "lastUsedTimestamp": "2023-12-21T21:52:30.086Z"
  },
  {
    "unformatted": "ברוכין, באולם רב תכלתי ברוכין מול בית הכנסת",
    "location": {
      "lat": 32.082231,
      "lng": 35.094113
    },
    "formatted": "ברוכין",
    "city": "ברוכין",
    "lastUsedTimestamp": "2023-12-06T14:25:10.544Z"
  },
  {
    "unformatted": "ישיבת אלון שבות - כיתות מכללת הרצוג",
    "location": {
      "lat": 31.6580162,
      "lng": 35.1242561
    },
    "formatted": "אלון שבות",
    "city": "ישיבת אלון שבות - כיתות מכללת הרצוג",
    "lastUsedTimestamp": "2023-11-29T14:33:13.383Z"
  },
  {
    "unformatted": "המסגר 39 תל אביב יפו, מגדל ניצבא",
    "location": {
      "lat": 32.0657589,
      "lng": 34.7860455
    },
    "formatted": "המסגר 39, תל אביב-יפו, ישראל",
    "city": "תל אביב יפו",
    "lastUsedTimestamp": "2023-11-27T15:09:03.196Z"
  },
  {
    "unformatted": "גל 3 ירושלים, אולם ספורט מנהל קהילתי פסגת זאב",
    "location": {
      "lat": 31.8250179,
      "lng": 35.2396583
    },
    "formatted": "שדרות משה דיין 135, ירושלים",
    "city": "ירושלים",
    "lastUsedTimestamp": "2023-12-17T06:52:38.485Z"
  },
  {
    "unformatted": "שד' ההסתדרות 55 חיפה, קניון סינמול בחנות תל אביב יפו קומה 1",
    "location": {
      "lat": 32.7935409,
      "lng": 35.0374184
    },
    "formatted": "שדרות ההסתדרות 55, חיפה, ישראל",
    "city": "חיפה",
    "lastUsedTimestamp": "2023-11-01T11:06:48.108Z"
  },
  {
    "unformatted": "התעשייה 60 ערד, צים סנטר",
    "location": {
      "lat": 31.24788959999999,
      "lng": 35.1996696
    },
    "formatted": "התעשייה 60, ערד, ישראל",
    "city": "ערד",
    "lastUsedTimestamp": "2023-12-18T21:52:37.129Z"
  },
  {
    "unformatted": "ש\"י עגנון 24 ירושלים, שבט משואות צופים קטמון",
    "location": {
      "lat": 31.7603128,
      "lng": 35.2044537
    },
    "formatted": "שדרות ש\"י עגנון 24, ירושלים, ישראל",
    "city": "ירושלים",
    "lastUsedTimestamp": "2023-12-28T21:52:34.866Z"
  },
  {
    "unformatted": "הלוחמים 62 חולון, בי\"ח וולפסון קומה F באולם כנסים בסמוך לחדרי לידה",
    "location": {
      "lat": 32.0364087,
      "lng": 34.7615321
    },
    "formatted": "הלוחמים 62, חולון, ישראל",
    "city": "חולון",
    "lastUsedTimestamp": "2023-12-03T16:37:01.101Z"
  },
  {
    "unformatted": "טורעאן, במתנ\"ס החדש ליד בי\"ס תיכון אלסראר",
    "location": {
      "lat": 32.7777413,
      "lng": 35.3762117
    },
    "formatted": "טורעאן, ישראל",
    "city": "טורעאן",
    "lastUsedTimestamp": "2023-12-14T13:42:38.252Z"
  },
  {
    "unformatted": "נהריה, בי\"ס מנחם בגין באולם ספורט",
    "location": {
      "lat": 32.9933139,
      "lng": 35.0896542
    },
    "formatted": "נהריה, ישראל",
    "city": "נהריה",
    "lastUsedTimestamp": "2023-11-20T08:52:43.737Z"
  },
  {
    "unformatted": "ירושלים, היכל הפיס ארנה - בכניסה הראשית",
    "location": {
      "lat": 31.751318,
      "lng": 35.1941643
    },
    "formatted": "דרך דוד בנבנישתי 1, ירושלים, ישראל",
    "city": "ירושלים",
    "lastUsedTimestamp": "2023-11-09T14:52:37.792Z"
  },
  {
    "unformatted": "נשיאי ישראל 33 כרמיאל, היכל התרבות",
    "location": {
      "lat": 32.9152129,
      "lng": 35.3031161
    },
    "formatted": "שדרות נשיאי ישראל 33, כרמיאל, ישראל",
    "city": "כרמיאל",
    "lastUsedTimestamp": "2023-12-10T10:08:22.169Z"
  },
  {
    "unformatted": "ויצמן תל אביב יפו, בנין סמי עופר",
    "location": {
      "lat": 32.0792741,
      "lng": 34.789062
    },
    "formatted": "בניין הלב סמי עופר, ויצמן‬ 6, תל אביב-יפו, ישראל",
    "city": "תל אביב יפו",
    "lastUsedTimestamp": "2023-12-13T11:25:55.270Z"
  },
  {
    "unformatted": "חריש, אולם גפן סמוך לבה\"ס רונה רמון",
    "location": {
      "lat": 32.4618771,
      "lng": 35.0455828
    },
    "formatted": "חריש, ישראל",
    "city": "חריש",
    "lastUsedTimestamp": "2023-10-31T13:26:09.364Z"
  },
  {
    "unformatted": "גני תקווה",
    "location": {
      "lat": 32.060497,
      "lng": 34.873121
    },
    "formatted": "גני תקווה, ישראל",
    "city": "גני תקווה",
    "lastUsedTimestamp": "2023-11-05T10:32:37.775Z"
  },
  {
    "unformatted": "מועצה אזורית עמק הירדן - במרכז עידן - צמח",
    "location": {
      "lat": 32.7268078,
      "lng": 35.5548422
    },
    "formatted": "עמק הירדן, ישראל",
    "city": "מועצה אזורית עמק הירדן - במרכז עידן - צמח",
    "lastUsedTimestamp": "2023-11-03T09:52:40.847Z"
  },
  {
    "unformatted": "רם כהן 1 יהוד מונוסון, אולם ששון",
    "location": {
      "lat": 32.0390514,
      "lng": 34.8932355
    },
    "formatted": "רם כהן 1, יהוד, ישראל",
    "city": "יהוד מונוסון",
    "lastUsedTimestamp": "2023-10-31T13:26:09.367Z"
  },
  {
    "unformatted": "שוהם 10 עפולה, מרכז הנוער - רובע יזרעאל",
    "location": {
      "lat": 32.6160676,
      "lng": 35.3068823
    },
    "formatted": "שוהם 10, עפולה, ישראל",
    "city": "עפולה",
    "lastUsedTimestamp": "2023-12-08T08:45:09.635Z"
  },
  {
    "unformatted": "ההסתדרות 1 חצור הגלילית, היכל התרבות",
    "location": {
      "lat": 32.980382,
      "lng": 35.543548
    },
    "formatted": "חצור הגלילית, ישראל",
    "city": "חצור הגלילית",
    "lastUsedTimestamp": "2023-11-08T20:42:39.864Z"
  },
  {
    "unformatted": "שד' מעלה יצחק 4 נוף הגליל, מתחם ברקוביץ",
    "location": {
      "lat": 32.6990355,
      "lng": 35.3132617
    },
    "formatted": "שדרות מעלה יצחק 4, נוף הגליל, ישראל",
    "city": "נוף הגליל",
    "lastUsedTimestamp": "2023-12-12T18:50:14.015Z"
  },
  {
    "unformatted": "רמת ישי, בית מרים",
    "location": {
      "lat": 32.7027076,
      "lng": 35.1661383
    },
    "formatted": "רמת ישי, ישראל",
    "city": "רמת ישי",
    "lastUsedTimestamp": "2024-01-16T21:52:43.990Z"
  },
  {
    "unformatted": "ירושלים 33 כפר סבא, היכל התרבות",
    "location": {
      "lat": 32.1768487,
      "lng": 34.90512289999999
    },
    "formatted": "ירושלים 33, כפר סבא, 4436903, ישראל",
    "city": "כפר סבא",
    "lastUsedTimestamp": "2023-11-21T14:08:00.024Z"
  },
  {
    "unformatted": "צורן, קונסרבטוריון ומרכז לאומנויות הבמה /מתנ\"ס צורן",
    "location": {
      "lat": 32.2879295,
      "lng": 34.93958569999999
    },
    "formatted": "דרך לב השרון 1, קדימה צורן, ישראל",
    "city": "צורן",
    "lastUsedTimestamp": "2023-11-03T09:52:40.848Z"
  },
  {
    "unformatted": "הרצוג 4 אזור, בי\"ס רבין",
    "location": {
      "lat": 32.46581,
      "lng": 34.9813
    },
    "formatted": "ברקת, פרדס חנה כרכור, ישראל",
    "city": "אזור",
    "lastUsedTimestamp": "2023-11-28T13:52:27.888Z"
  },
  {
    "unformatted": "ניל''י, אולם בית התרבות",
    "location": {
      "lat": 31.963415,
      "lng": 35.04727
    },
    "formatted": "ניל\"י",
    "city": "ניל''י",
    "lastUsedTimestamp": "2023-10-31T13:26:09.363Z"
  },
  {
    "unformatted": "גבעת ברנר, תיכון \"ברנר\"",
    "location": {
      "lat": 31.8683849,
      "lng": 34.8059785
    },
    "formatted": "תיכון ברנר, גבעת ברנר, ישראל",
    "city": "גבעת ברנר",
    "lastUsedTimestamp": "2023-11-09T14:52:37.794Z"
  },
  {
    "unformatted": "ברקן, אולם התרבות ברקן",
    "location": {
      "lat": 32.109487,
      "lng": 35.106008
    },
    "formatted": "ברקן",
    "city": "ברקן",
    "lastUsedTimestamp": "2023-11-02T12:43:18.559Z"
  },
  {
    "unformatted": "דימונה, בי\"ס יצחק שדה",
    "location": {
      "lat": 31.0745088,
      "lng": 35.0273641
    },
    "formatted": "דימונה, ישראל",
    "city": "דימונה",
    "lastUsedTimestamp": "2023-11-13T12:44:14.143Z"
  },
  {
    "unformatted": "החרושת 10 חיפה, חוצות המפרץ - בניין 2 בין חנות איבורי ליונידרס",
    "location": {
      "lat": 32.8098421,
      "lng": 35.0565803
    },
    "formatted": "החרושת 10, חיפה, ישראל",
    "city": "חיפה",
    "lastUsedTimestamp": "2023-12-10T10:08:22.171Z"
  },
  {
    "unformatted": "בית הקשיש",
    "location": {
      "lat": 33.44852903890945,
      "lng": 32.05693494134149
    },
    "formatted": "bad_address",
    "city": "בית הקשיש",
    "lastUsedTimestamp": "2023-11-01T13:52:24.904Z"
  },
  {
    "unformatted": "מבשרת ציון, תיכון הראל באולם הספורט",
    "location": {
      "lat": 31.7933776,
      "lng": 35.1467003
    },
    "formatted": "שדרות החוצבים 6, מבשרת ציון, ישראל",
    "city": "מבשרת ציון",
    "lastUsedTimestamp": "2023-11-06T12:14:41.852Z"
  },
  {
    "unformatted": "באר שבע, גראנד קניון קומה מינוס 2",
    "location": {
      "lat": 31.25092365790023,
      "lng": 34.77157371434794
    },
    "formatted": "באר שבע, ישראל",
    "city": "באר שבע",
    "lastUsedTimestamp": "2024-02-05T12:56:08.392Z"
  },
  {
    "unformatted": "דרך משה פלימן 4 חיפה, קניון חיפה - במרפסת של האוכל המהיר",
    "location": {
      "lat": 32.7896507,
      "lng": 34.9651905
    },
    "formatted": "דרך משה פלימן 4, חיפה, 3508416, ישראל",
    "city": "חיפה",
    "lastUsedTimestamp": "2023-11-12T16:08:27.698Z"
  },
  {
    "unformatted": "הירקון 5 בני ברק, מגדלי לייף בני ברק",
    "location": {
      "lat": 32.0957856,
      "lng": 34.8227854
    },
    "formatted": "הירקון 5, בני ברק, ישראל",
    "city": "בני ברק",
    "lastUsedTimestamp": "2023-12-07T13:00:10.040Z"
  },
  {
    "unformatted": "הדר עומר, מרכז הפיס",
    "location": {
      "lat": 31.2646026,
      "lng": 34.8496213
    },
    "formatted": "הדר 8, עומר, ישראל",
    "city": "עומר",
    "lastUsedTimestamp": "2023-11-07T10:27:04.722Z"
  },
  {
    "unformatted": "אשדוד, רח' הרפואה 1 (תחנה נגישה), - תחנת מד\"א",
    "location": {
      "lat": 31.7799797,
      "lng": 34.654115
    },
    "formatted": "הרפואה 1, אשדוד, ישראל",
    "city": "אשדוד",
    "lastUsedTimestamp": "2024-02-05T12:56:08.392Z"
  },
  {
    "unformatted": "הראשונים 11, גבעת אולגה - מתנ\"ס",
    "location": {
      "lat": 32.4425987,
      "lng": 34.8866684
    },
    "formatted": "הראשונים 11, חדרה, ישראל",
    "city": "",
    "lastUsedTimestamp": "2023-11-02T12:43:18.558Z"
  },
  {
    "unformatted": "אביאור 7 חדרה, תחנת מד\"א חדרה, - תחנת מד\"א",
    "location": {
      "lat": 32.4445161,
      "lng": 34.9228603
    },
    "formatted": "אביאור 7-11, חדרה, ישראל",
    "city": "חדרה",
    "lastUsedTimestamp": "2024-02-05T12:56:08.392Z"
  },
  {
    "unformatted": "דרך עכו 192 קרית ביאליק, קריון - שדרה 3 בחנות מול אפריל",
    "location": {
      "lat": 32.8441591,
      "lng": 35.091106
    },
    "formatted": "דרך עכו 192, קריית ביאליק, ישראל",
    "city": "קרית ביאליק",
    "lastUsedTimestamp": "2023-12-10T10:08:22.171Z"
  },
  {
    "unformatted": "דרך שיבא רמת גן, בנק הדם מד\"א / בית חולים שיבא תל השומר (תחנה נגישה), - שרותי הדם מד\"א",
    "location": {
      "lat": 32.0459077,
      "lng": 34.8467524
    },
    "formatted": "בית חולים תל השומר, רמת גן, ישראל",
    "city": "רמת גן",
    "lastUsedTimestamp": "2024-02-05T12:56:08.392Z"
  },
  {
    "unformatted": "ירושלים, רח' המ\"ג 7 רוממה (תחנה נגישה), - תחנת מד\"א",
    "location": {
      "lat": 31.7913012,
      "lng": 35.1996146
    },
    "formatted": "מגן דוד אדום, המ\"ג 7, ירושלים, ישראל",
    "city": "ירושלים",
    "lastUsedTimestamp": "2024-02-05T12:56:08.391Z"
  },
  {
    "unformatted": "ד.נ. משגב",
    "location": {
      "lat": 32.8782643,
      "lng": 35.2697802
    },
    "formatted": "משגב, ישראל",
    "city": "",
    "lastUsedTimestamp": "2023-11-06T12:14:41.851Z"
  },
  {
    "unformatted": "זרזיר, במתנ\"ס ליד המועצה",
    "location": {
      "lat": 32.723291,
      "lng": 35.220436
    },
    "formatted": "זרזיר, ישראל",
    "city": "זרזיר",
    "lastUsedTimestamp": "2023-11-05T12:40:08.002Z"
  },
  {
    "unformatted": "שד' ההסתדרות 55 חיפה, קניון סינמול לב המפרץ חיפה בחנות מול הסופר פארם",
    "location": {
      "lat": 32.7935409,
      "lng": 35.0374184
    },
    "formatted": "שדרות ההסתדרות 55, חיפה, ישראל",
    "city": "חיפה",
    "lastUsedTimestamp": "2023-11-21T14:08:00.024Z"
  },
  {
    "unformatted": "מיתר, בי\"ס מיתרים ברנקו וייס מיתר",
    "location": {
      "lat": 31.32707,
      "lng": 34.94162
    },
    "formatted": "שדרות המייסדים 1, מיתר, ישראל",
    "city": "מיתר",
    "lastUsedTimestamp": "2023-11-03T09:52:40.848Z"
  },
  {
    "unformatted": "מועדון לחבר",
    "location": {
      "lat": 32.5174369,
      "lng": 34.940483
    },
    "formatted": "השריג 2, בנימינה גבעת עדה, ישראל",
    "city": "מועדון לחבר",
    "lastUsedTimestamp": "2024-01-08T11:07:35.907Z"
  },
  {
    "unformatted": "חרמש, מועדון קהילתי",
    "location": {
      "lat": 32.423726,
      "lng": 35.118993
    },
    "formatted": "חרמש",
    "city": "חרמש",
    "lastUsedTimestamp": "2023-11-05T12:40:08.004Z"
  },
  {
    "unformatted": "ירושלים, היכל הפיס ארנה - פלסמה פרזיס AB",
    "location": {
      "lat": 31.751318,
      "lng": 35.1941643
    },
    "formatted": "דרך דוד בנבנישתי 1, ירושלים, ישראל",
    "city": "ירושלים",
    "lastUsedTimestamp": "2023-11-02T12:43:18.561Z"
  },
  {
    "unformatted": "הפלמ\"ח 2 רעננה, תיכון מטרו ווסט",
    "location": {
      "lat": 32.1899657,
      "lng": 34.8772006
    },
    "formatted": "הפלמ\"ח 2, רעננה, ישראל",
    "city": "רעננה",
    "lastUsedTimestamp": "2023-12-12T18:50:14.016Z"
  },
  {
    "unformatted": "ירושלים, תרומת פלסמה פרזיס סוג דם AB",
    "location": {
      "lat": 31.768319,
      "lng": 35.21371
    },
    "formatted": "ירושלים, ישראל",
    "city": "ירושלים",
    "lastUsedTimestamp": "2023-11-19T09:52:40.258Z"
  },
  {
    "unformatted": "בני אפרים 218 תל אביב יפו, מכללת אפקה -בניין הקריה",
    "location": {
      "lat": 32.115041,
      "lng": 34.8174635
    },
    "formatted": "בני אפרים 226, תל אביב-יפו, ישראל",
    "city": "תל אביב יפו",
    "lastUsedTimestamp": "2023-11-06T12:14:41.851Z"
  },
  {
    "unformatted": "ד.נ אושרת טל אל, מועדון לחברים",
    "location": {
      "lat": 32.6467305,
      "lng": 35.3500867
    },
    "formatted": "דברת, ישראל",
    "city": "טל אל",
    "lastUsedTimestamp": "2023-11-08T20:42:39.863Z"
  },
  {
    "unformatted": "דרך הרעות 89 פרדסיה, בית ספר רימון",
    "location": {
      "lat": 32.3117675,
      "lng": 34.9095993
    },
    "formatted": "פרדסיה, ישראל",
    "city": "פרדסיה",
    "lastUsedTimestamp": "2023-11-08T20:42:39.863Z"
  },
  {
    "unformatted": "אלנבי 110 תל אביב יפו, בית הכנסת הגדול",
    "location": {
      "lat": 32.0643997,
      "lng": 34.7722854
    },
    "formatted": "אלנבי 110, תל אביב-יפו, ישראל",
    "city": "תל אביב יפו",
    "lastUsedTimestamp": "2023-11-07T10:27:04.723Z"
  },
  {
    "unformatted": "החשמונאים 75 קרית מוצקין, רח' החשמונאים 75, קרית מוצקין, - תחנת מד\"א",
    "location": {
      "lat": 32.8440668,
      "lng": 35.0802042
    },
    "formatted": "החשמונאים 75, קרית מוצקין, ישראל",
    "city": "קרית מוצקין",
    "lastUsedTimestamp": "2024-02-02T21:52:34.519Z"
  },
  {
    "unformatted": "מוועצה אזורית רמת נגב בבית גיל הזהב",
    "location": {
      "lat": 30.8303673,
      "lng": 34.7740793
    },
    "formatted": "רמת הנגב, ישראל",
    "city": "מוועצה אזורית רמת נגב בבית גיל הזהב",
    "lastUsedTimestamp": "2023-11-16T14:25:40.704Z"
  },
  {
    "unformatted": "מיתר, בי\"ס מיתרים ברנקו וייס באולם ספורט, מיתר",
    "location": {
      "lat": 31.32707,
      "lng": 34.94162
    },
    "formatted": "שדרות המייסדים 1, מיתר, ישראל",
    "city": "מיתר",
    "lastUsedTimestamp": "2023-11-09T14:52:37.794Z"
  },
  {
    "unformatted": "אורנים 11 קרית טבעון, בה\"ס רימונים - אולם ספורט",
    "location": {
      "lat": 32.7174964,
      "lng": 35.1276946
    },
    "formatted": "האורנים 11, קרית טבעון, ישראל",
    "city": "קרית טבעון",
    "lastUsedTimestamp": "2023-11-13T12:44:14.143Z"
  },
  {
    "unformatted": "להבים, בית המייסדים",
    "location": {
      "lat": 31.3725107,
      "lng": 34.8159437
    },
    "formatted": "שדרות תמר 1, להבים, ישראל",
    "city": "להבים",
    "lastUsedTimestamp": "2023-11-19T12:41:18.691Z"
  },
  {
    "unformatted": "שלמה קפלן 5 תל אביב יפו, צ'ק פוינט",
    "location": {
      "lat": 32.0692701,
      "lng": 34.7960642
    },
    "formatted": "שלמה קפלן 5, תל אביב-יפו, ישראל",
    "city": "תל אביב יפו",
    "lastUsedTimestamp": "2023-11-06T12:14:41.853Z"
  },
  {
    "unformatted": "רמת יוחנן, בפאב",
    "location": {
      "lat": 32.793457,
      "lng": 35.122208
    },
    "formatted": "רמת יוחנן, ישראל",
    "city": "רמת יוחנן",
    "lastUsedTimestamp": "2023-11-07T10:27:04.722Z"
  },
  {
    "unformatted": "שמגר 27 ירושלים, שמגר סנטר",
    "location": {
      "lat": 31.7953993,
      "lng": 35.2075195
    },
    "formatted": "שמגר 27, ירושלים, ישראל",
    "city": "ירושלים",
    "lastUsedTimestamp": "2023-11-08T20:42:39.864Z"
  },
  {
    "unformatted": "נצרת, בי\"ח אנגלי נצרת ברחבת האודיטוריום קומה 2",
    "location": {
      "lat": 32.702209,
      "lng": 35.2921401
    },
    "formatted": "נצרת, ישראל",
    "city": "נצרת",
    "lastUsedTimestamp": "2023-11-09T14:52:37.793Z"
  },
  {
    "unformatted": "מוריה 7 אפרת, ביה\"ס אריאל",
    "location": {
      "lat": 32.1017089,
      "lng": 35.20645349999999
    },
    "formatted": "מוריה 7, אריאל",
    "city": "אפרת",
    "lastUsedTimestamp": "2023-11-30T16:44:37.681Z"
  },
  {
    "unformatted": "הדקל 17 בני עי''ש, מועדון הנוער",
    "location": {
      "lat": 31.7906353,
      "lng": 34.7564496
    },
    "formatted": "הדקל 17, בני עי\"ש, ישראל",
    "city": "בני עי''ש",
    "lastUsedTimestamp": "2023-11-19T12:41:18.691Z"
  },
  {
    "unformatted": "דרך השמורה צור הדסה, באולם הספורט היישובי",
    "location": {
      "lat": 31.7165079,
      "lng": 35.0972725
    },
    "formatted": "שדרות הרי יהודה, צור הדסה, ישראל",
    "city": "צור הדסה",
    "lastUsedTimestamp": "2023-11-19T12:41:18.691Z"
  },
  {
    "unformatted": "באר טוביה, בבית העם",
    "location": {
      "lat": 31.737127,
      "lng": 34.72557
    },
    "formatted": "באר טוביה, ישראל",
    "city": "באר טוביה",
    "lastUsedTimestamp": "2023-12-03T11:23:21.685Z"
  },
  {
    "unformatted": "מועצה אזורית עמק הירדן - בחדר האוכל בגינוסר",
    "location": {
      "lat": 32.848666,
      "lng": 35.523152
    },
    "formatted": "גינוסר, ישראל",
    "city": "מועצה אזורית עמק הירדן - בחדר האוכל בגינוסר",
    "lastUsedTimestamp": "2023-11-09T14:52:37.794Z"
  },
  {
    "unformatted": "עיילבון, מכללת המוביל - עילבון",
    "location": {
      "lat": 32.8337402,
      "lng": 35.4054069
    },
    "formatted": "עיילבון, 1697200, ישראל",
    "city": "עיילבון",
    "lastUsedTimestamp": "2023-11-14T12:59:29.984Z"
  },
  {
    "unformatted": "פייר קניג 26 ירושלים, קניון הדר - קומה מינוס 2",
    "location": {
      "lat": 31.7534343,
      "lng": 35.213897
    },
    "formatted": "גנרל פייר קניג 26, ירושלים, ישראל",
    "city": "ירושלים",
    "lastUsedTimestamp": "2023-12-13T11:25:55.269Z"
  },
  {
    "unformatted": "ישראל גליל 7 ראשון לציון, קרית הלאום - בחדר כושר הולמס פלייס",
    "location": {
      "lat": 31.9696652,
      "lng": 34.7808481
    },
    "formatted": "ישראל גלילי 7, ראשון לציון, ישראל",
    "city": "ראשון לציון",
    "lastUsedTimestamp": "2023-11-12T16:08:27.699Z"
  },
  {
    "unformatted": "השקדיה 7 רמת גן, בי\"ס גבעולים - באולם הספורט (הכניסה דרך שער גינת)",
    "location": {
      "lat": 32.0885303,
      "lng": 34.8128848
    },
    "formatted": "רמת גן, ישראל",
    "city": "רמת גן",
    "lastUsedTimestamp": "2023-11-13T12:44:14.144Z"
  },
  {
    "unformatted": "מועצה אזורית בקעת הירדן במבואה של אולם הפיס",
    "location": {
      "lat": 32.0029017,
      "lng": 34.831473
    },
    "formatted": "שדרות מנחם בגין 21, בית דגן, ישראל",
    "city": "מועצה אזורית בקעת הירדן במבואה של אולם הפיס",
    "lastUsedTimestamp": "2023-11-12T16:08:27.697Z"
  },
  {
    "unformatted": "רמת גן, בי\"ס אהל שם",
    "location": {
      "lat": 32.0960009,
      "lng": 34.8164438
    },
    "formatted": "רוקח 118, רמת גן, ישראל",
    "city": "רמת גן",
    "lastUsedTimestamp": "2023-11-19T12:41:18.692Z"
  },
  {
    "unformatted": "מזרע, רחבת אולם המופעים קיבוץ מזרע",
    "location": {
      "lat": 32.649587,
      "lng": 35.285349
    },
    "formatted": "מזרע, ישראל",
    "city": "מזרע",
    "lastUsedTimestamp": "2023-11-16T14:25:40.706Z"
  },
  {
    "unformatted": "רמת חן 32 רמת גן, בי\"ס בליך",
    "location": {
      "lat": 32.0554566,
      "lng": 34.8164909
    },
    "formatted": "רמת חן 32, רמת גן, ישראל",
    "city": "רמת גן",
    "lastUsedTimestamp": "2023-11-15T14:25:00.049Z"
  },
  {
    "unformatted": "פוריה נווה עובד, המרכז הרפואי צפון ע\"ש ברוך פדה בלובי המיון מול המזכירות",
    "location": {
      "lat": 32.743763,
      "lng": 35.53811
    },
    "formatted": "פוריה נווה עובד, ישראל",
    "city": "פוריה נווה עובד",
    "lastUsedTimestamp": "2023-11-20T13:52:50.705Z"
  },
  {
    "unformatted": "אורנית, תרבותא אורנית",
    "location": {
      "lat": 32.1229591,
      "lng": 34.9954319
    },
    "formatted": "אורנית",
    "city": "אורנית",
    "lastUsedTimestamp": "2023-12-06T14:25:10.543Z"
  },
  {
    "unformatted": "מרכז שפירא, ישיבה תיכונית אור עציון",
    "location": {
      "lat": 31.6984452,
      "lng": 34.708585
    },
    "formatted": "מרכז שפירא, ישראל",
    "city": "מרכז שפירא",
    "lastUsedTimestamp": "2023-11-16T14:25:40.705Z"
  },
  {
    "unformatted": "החשמונאים 75 קרית מוצקין, רח' החשמונאים 75 מד\"א מוצקין, - תחנת מד\"א",
    "location": {
      "lat": 32.8440668,
      "lng": 35.0802042
    },
    "formatted": "החשמונאים 75, קרית מוצקין, ישראל",
    "city": "קרית מוצקין",
    "lastUsedTimestamp": "2023-12-01T06:42:43.017Z"
  },
  {
    "unformatted": "ירושלים 4 עפולה, בנין מס הכנסה עפולה בלובי הכניסה",
    "location": {
      "lat": 32.606768,
      "lng": 35.2913572
    },
    "formatted": "ירושלים 4, עפולה, ישראל",
    "city": "עפולה",
    "lastUsedTimestamp": "2023-11-16T14:25:40.705Z"
  },
  {
    "unformatted": "הבנים 8 בית דגן, בי\"ס שדות",
    "location": {
      "lat": 32.0016187,
      "lng": 34.8322298
    },
    "formatted": "הבנים 8, בית דגן, ישראל",
    "city": "בית דגן",
    "lastUsedTimestamp": "2023-11-23T14:52:33.063Z"
  },
  {
    "unformatted": "פלפלון 1 באר שבע, מתנ\"ס נווה נוי",
    "location": {
      "lat": 31.2293964,
      "lng": 34.7828381
    },
    "formatted": "אטד 85, באר שבע, ישראל",
    "city": "באר שבע",
    "lastUsedTimestamp": "2023-11-16T14:25:40.706Z"
  },
  {
    "unformatted": "התאנה 40 נוף הגליל, מכינת תבור",
    "location": {
      "lat": 32.6995468,
      "lng": 35.3129286
    },
    "formatted": "שדרות מעלה יצחק 4, נוף הגליל, ישראל",
    "city": "נוף הגליל",
    "lastUsedTimestamp": "2023-11-21T14:08:00.023Z"
  },
  {
    "unformatted": "עמיעד, עמיעד במועדון",
    "location": {
      "lat": 32.930354,
      "lng": 35.54052100000001
    },
    "formatted": "עמיעד, ישראל",
    "city": "עמיעד",
    "lastUsedTimestamp": "2023-11-16T14:25:40.706Z"
  },
  {
    "unformatted": "ספרא 37 קרית מלאכי, בי\"ס גימנסיה דרכא",
    "location": {
      "lat": 31.7306805,
      "lng": 34.7445019
    },
    "formatted": "קרית מלאכי, ישראל",
    "city": "קרית מלאכי",
    "lastUsedTimestamp": "2023-11-19T12:41:18.691Z"
  },
  {
    "unformatted": "מועדון הנוער",
    "location": {
      "lat": 33.44852903890945,
      "lng": 32.05693494134149
    },
    "formatted": "bad_address",
    "city": "",
    "lastUsedTimestamp": "2023-11-19T12:41:18.691Z"
  },
  {
    "unformatted": "קבוצת יבנה, אולם אירועים",
    "location": {
      "lat": 31.81398699999999,
      "lng": 34.719103
    },
    "formatted": "קבוצת יבנה, ישראל",
    "city": "קבוצת יבנה",
    "lastUsedTimestamp": "2023-11-19T12:41:18.691Z"
  },
  {
    "unformatted": "אשכולות, מועדון נוער",
    "location": {
      "lat": 31.391171,
      "lng": 34.904856
    },
    "formatted": "אשכולות",
    "city": "אשכולות",
    "lastUsedTimestamp": "2023-11-29T14:33:13.383Z"
  },
  {
    "unformatted": "ד.נ.הנגב שובל, חדר אוכל",
    "location": {
      "lat": 30.7140861,
      "lng": 34.8757476
    },
    "formatted": "הנגב",
    "city": "שובל",
    "lastUsedTimestamp": "2023-11-23T14:52:33.064Z"
  },
  {
    "unformatted": "הגפן 16 בני דקלים, מעון בני דקלים שלב ב",
    "location": {
      "lat": 31.517188,
      "lng": 34.917033
    },
    "formatted": "בני דקלים, ישראל",
    "city": "בני דקלים",
    "lastUsedTimestamp": "2024-01-18T21:52:31.020Z"
  },
  {
    "unformatted": "השלושה 2 תל אביב יפו, משרד החינוך תל אביב",
    "location": {
      "lat": 32.061711,
      "lng": 34.788543
    },
    "formatted": "השלושה 2, תל אביב-יפו, ישראל",
    "city": "תל אביב יפו",
    "lastUsedTimestamp": "2023-12-04T13:21:14.512Z"
  },
  {
    "unformatted": "ת.ד. 100 כוכב יאיר, אולם התרבות",
    "location": {
      "lat": 32.220922,
      "lng": 34.992405
    },
    "formatted": "כוכב יאיר צור יגאל, ישראל",
    "city": "כוכב יאיר",
    "lastUsedTimestamp": "2023-11-23T14:52:33.063Z"
  },
  {
    "unformatted": "דרך הבנים 20 פרדס חנה כרכור, אולם המועצה",
    "location": {
      "lat": 32.4754231,
      "lng": 34.9749917
    },
    "formatted": "דרך הבנים 20, פרדס חנה כרכור, ישראל",
    "city": "פרדס חנה כרכור",
    "lastUsedTimestamp": "2023-11-27T15:09:03.197Z"
  },
  {
    "unformatted": "עין זיוון, חדר אוכל",
    "location": {
      "lat": 33.09645,
      "lng": 35.796313
    },
    "formatted": "עין זיוון",
    "city": "עין זיוון",
    "lastUsedTimestamp": "2023-11-21T14:08:00.024Z"
  },
  {
    "unformatted": "החשמונאים 75 קרית מוצקין, רח' החשמונאים 75 קרית מוצקין, - תחנת מד\"א",
    "location": {
      "lat": 32.8440668,
      "lng": 35.0802042
    },
    "formatted": "החשמונאים 75, קרית מוצקין, ישראל",
    "city": "קרית מוצקין",
    "lastUsedTimestamp": "2024-01-26T21:42:34.004Z"
  },
  {
    "unformatted": "תקוע, באולם המבנה החקלאי החדש",
    "location": {
      "lat": 31.652785,
      "lng": 35.227517
    },
    "formatted": "תקוע",
    "city": "תקוע",
    "lastUsedTimestamp": "2023-11-22T15:42:22.411Z"
  },
  {
    "unformatted": "ירושלים, היכל הפיס ארנה - תרומת פלסמה פרזיס סוג דם AB",
    "location": {
      "lat": 31.751318,
      "lng": 35.1941643
    },
    "formatted": "דרך דוד בנבנישתי 1, ירושלים, ישראל",
    "city": "ירושלים",
    "lastUsedTimestamp": "2023-11-21T14:08:00.024Z"
  },
  {
    "unformatted": "עפולה, מרכז הרפואי העמק בעפולה בלובי בנין 4",
    "location": {
      "lat": 32.6210762,
      "lng": 35.3165964
    },
    "formatted": "שדרות יצחק רבין 21, עפולה, 1834111, ישראל",
    "city": "עפולה",
    "lastUsedTimestamp": "2023-12-31T21:52:28.291Z"
  },
  {
    "unformatted": "רם און, מקלט בית העם",
    "location": {
      "lat": 32.5287435,
      "lng": 35.2586585
    },
    "formatted": "רם און, ישראל",
    "city": "רם און",
    "lastUsedTimestamp": "2023-11-22T15:42:22.411Z"
  },
  {
    "unformatted": "משמר הנגב, מועדון לחבר",
    "location": {
      "lat": 31.3631748,
      "lng": 34.7178743
    },
    "formatted": "משמר הנגב, ישראל",
    "city": "משמר הנגב",
    "lastUsedTimestamp": "2023-11-26T12:41:07.691Z"
  },
  {
    "unformatted": "לביא, מלון לביא באולם שיבולת",
    "location": {
      "lat": 33.44852903890945,
      "lng": 32.05693494134149
    },
    "formatted": "bad_address",
    "city": "",
    "lastUsedTimestamp": "2023-11-22T15:42:22.411Z"
  },
  {
    "unformatted": "נהריה, בי\"ס מנחם בגין",
    "location": {
      "lat": 32.9933139,
      "lng": 35.0896542
    },
    "formatted": "נהריה, ישראל",
    "city": "נהריה",
    "lastUsedTimestamp": "2023-11-23T14:52:33.064Z"
  },
  {
    "unformatted": "המכבים 43 גבעת זאב, בית ספר ממ\"ד",
    "location": {
      "lat": 31.86285669999999,
      "lng": 35.1671645
    },
    "formatted": "רחוב המכבים 43, גבעת זאב",
    "city": "גבעת זאב",
    "lastUsedTimestamp": "2023-11-22T12:45:20.008Z"
  },
  {
    "unformatted": "נווה אטי''ב, במקלט ליד המועדון",
    "location": {
      "lat": 33.26202,
      "lng": 35.740574
    },
    "formatted": "נווה אטי\"ב",
    "city": "נווה אטי''ב",
    "lastUsedTimestamp": "2023-11-22T15:42:22.412Z"
  },
  {
    "unformatted": "מועדון הישוב, נופי פרת",
    "location": {
      "lat": 31.82351899999999,
      "lng": 35.319875
    },
    "formatted": "נופי פרת, כפר אדומים",
    "city": "מועדון הישוב, נופי פרת",
    "lastUsedTimestamp": "2023-11-23T14:52:33.063Z"
  },
  {
    "unformatted": "גבע בנימין, אולם מישכן יותם ישוב אדם מתחת לאולם ספורט",
    "location": {
      "lat": 31.849999,
      "lng": 35.273853
    },
    "formatted": "גבע בנימין",
    "city": "גבע בנימין",
    "lastUsedTimestamp": "2023-11-26T12:41:07.690Z"
  },
  {
    "unformatted": "מתנס גוש עציון - הגבעה הצהובה",
    "location": {
      "lat": 31.6584692,
      "lng": 35.1184861
    },
    "formatted": "אדום 34, אלון שבות",
    "city": "מתנס גוש עציון - הגבעה הצהובה",
    "lastUsedTimestamp": "2023-11-23T14:52:33.063Z"
  },
  {
    "unformatted": "ביאליק 13 טבריה, היכל התרבות יד שיטרית",
    "location": {
      "lat": 32.795978,
      "lng": 35.529639
    },
    "formatted": "ביאליק 15, טבריה, 1422156, ישראל",
    "city": "טבריה",
    "lastUsedTimestamp": "2023-11-27T15:09:03.196Z"
  },
  {
    "unformatted": "א.צ. גרינברג גן יבנה, בי\"ס נעמי שמר",
    "location": {
      "lat": 31.7919108,
      "lng": 34.6987323
    },
    "formatted": "א.צ. גרינברג, גן יבנה, ישראל",
    "city": "גן יבנה",
    "lastUsedTimestamp": "2023-12-05T14:26:04.362Z"
  },
  {
    "unformatted": "רכסים, מתנ\"ס",
    "location": {
      "lat": 32.7532293,
      "lng": 35.1040592
    },
    "formatted": "הרקפות 1, רכסים, 20496, ישראל",
    "city": "רכסים",
    "lastUsedTimestamp": "2023-11-27T15:09:03.196Z"
  },
  {
    "unformatted": "להבות חביבה, מועדון לחבר",
    "location": {
      "lat": 32.395216,
      "lng": 35.01179
    },
    "formatted": "להבות חביבה, ישראל",
    "city": "להבות חביבה",
    "lastUsedTimestamp": "2023-11-27T15:09:03.196Z"
  },
  {
    "unformatted": "המכבים 43 גבעת זאב, אולם הספורט בבית ספר ממ\"ד גבעת זאב",
    "location": {
      "lat": 31.86285669999999,
      "lng": 35.1671645
    },
    "formatted": "רחוב המכבים 43, גבעת זאב",
    "city": "גבעת זאב",
    "lastUsedTimestamp": "2023-11-29T14:33:13.383Z"
  },
  {
    "unformatted": "אלברט איינשטיין 5 ראש העין, בי\"ס תיכון שחקים",
    "location": {
      "lat": 32.0870494,
      "lng": 34.96484179999999
    },
    "formatted": "‫אלברט איינשטיין 1, ראש העין, ישראל",
    "city": "ראש העין",
    "lastUsedTimestamp": "2023-12-03T16:37:01.101Z"
  },
  {
    "unformatted": "ירושלים, תרומת פלסמה AB, - תחנת מד\"א",
    "location": {
      "lat": 31.791749680874574,
      "lng": 35.199744756199166
    },
    "formatted": "ירושלים, ישראל",
    "city": "ירושלים",
    "lastUsedTimestamp": "2024-02-05T12:56:08.393Z"
  },
  {
    "unformatted": "גולדה מאיר 1 בית שאן, בי\"ס תומר באולם ספורט",
    "location": {
      "lat": 32.48938,
      "lng": 35.49153
    },
    "formatted": "גולדה מאיר 1, בית שאן, ישראל",
    "city": "בית שאן",
    "lastUsedTimestamp": "2023-11-26T12:41:07.691Z"
  },
  {
    "unformatted": "שייקה אופיר 1 כפר יונה, קניון כפר יונה",
    "location": {
      "lat": 32.3207607,
      "lng": 34.9360101
    },
    "formatted": "דוד בן גוריון 1, כפר יונה, ישראל",
    "city": "כפר יונה",
    "lastUsedTimestamp": "2023-11-23T14:52:33.067Z"
  },
  {
    "unformatted": "יוסף ריבלין 20 ירושלים, מוזיאון ידידי ישראל - קומה 1",
    "location": {
      "lat": 31.7801166,
      "lng": 35.2202768
    },
    "formatted": "יוסף ריבלין 20, קומה 1, ירושלים, ישראל",
    "city": "ירושלים",
    "lastUsedTimestamp": "2024-02-05T12:56:08.393Z"
  },
  {
    "unformatted": "כנפי נשרים 62 ירושלים, לובי בנין טויוטה",
    "location": {
      "lat": 31.787854,
      "lng": 35.1830347
    },
    "formatted": "כנפי נשרים 62, ירושלים, 9546454, ישראל",
    "city": "ירושלים",
    "lastUsedTimestamp": "2023-11-23T14:24:38.678Z"
  },
  {
    "unformatted": "ביתר 8 ירושלים, בית הספר המסורתי שכונת ארנונה",
    "location": {
      "lat": 31.7545213,
      "lng": 35.2238935
    },
    "formatted": "8 בית\"ר, Jerusalem, ישראל",
    "city": "ירושלים",
    "lastUsedTimestamp": "2023-12-01T06:42:43.016Z"
  },
  {
    "unformatted": "כנפי נשרים 62 ירושלים, לובי בניין טויוטה",
    "location": {
      "lat": 31.787854,
      "lng": 35.1830347
    },
    "formatted": "כנפי נשרים 62, ירושלים, 9546454, ישראל",
    "city": "ירושלים",
    "lastUsedTimestamp": "2023-11-27T15:09:03.196Z"
  },
  {
    "unformatted": "שייקה אופיר 1 כפר יונה, קניון כפר יונה ליד חנות ללין בקומת כניסה.",
    "location": {
      "lat": 32.3207607,
      "lng": 34.9360101
    },
    "formatted": "דוד בן גוריון 1, כפר יונה, ישראל",
    "city": "כפר יונה",
    "lastUsedTimestamp": "2023-11-28T13:52:27.888Z"
  },
  {
    "unformatted": "צור הדסה, בית הספר הדסים באולם ספורט",
    "location": {
      "lat": 31.7165079,
      "lng": 35.0972725
    },
    "formatted": "שדרות הרי יהודה, צור הדסה, ישראל",
    "city": "צור הדסה",
    "lastUsedTimestamp": "2024-02-05T12:56:08.393Z"
  },
  {
    "unformatted": "דרך כפר הדר 33 הוד השרון, מרכז האומנויות",
    "location": {
      "lat": 32.1514702,
      "lng": 34.888237
    },
    "formatted": "דרך כפר הדר 33, הוד השרון, 4526394, ישראל",
    "city": "הוד השרון",
    "lastUsedTimestamp": "2024-01-29T21:52:22.811Z"
  },
  {
    "unformatted": "אחוזת ברק, באולם הגדול ליד המזכירות",
    "location": {
      "lat": 32.643101,
      "lng": 35.338893
    },
    "formatted": "אחוזת ברק, ישראל",
    "city": "אחוזת ברק",
    "lastUsedTimestamp": "2023-12-01T06:42:43.016Z"
  },
  {
    "unformatted": "משגב לדך ירושלים, אולם מונטיפיורי שכונת הרובע היהודי",
    "location": {
      "lat": 31.77553,
      "lng": 35.2328181
    },
    "formatted": "רחוב משגב לדך, ירושלים",
    "city": "ירושלים",
    "lastUsedTimestamp": "2023-12-04T10:30:07.321Z"
  },
  {
    "unformatted": "עמיעד 12 תל אביב יפו, מרכז עמיעד",
    "location": {
      "lat": 32.0534135,
      "lng": 34.7555725
    },
    "formatted": "עמיעד 12, תל אביב-יפו, ישראל",
    "city": "תל אביב יפו",
    "lastUsedTimestamp": "2023-12-01T06:42:43.017Z"
  },
  {
    "unformatted": "במתחם המזון בקומה העליונה פתח תקווה, קניון עופר סירקין",
    "location": {
      "lat": 32.0798459,
      "lng": 34.902483
    },
    "formatted": "אלעזר פרידמן 9, פתח תקווה, ישראל",
    "city": "פתח תקווה",
    "lastUsedTimestamp": "2023-12-01T06:42:43.017Z"
  },
  {
    "unformatted": "סתוונית 1 בית שמש, בבית הכנסת קהילת נופי שמש בית שמש",
    "location": {
      "lat": 31.7367926,
      "lng": 34.9850627
    },
    "formatted": "סתוונית 1, בית שמש, ישראל",
    "city": "בית שמש",
    "lastUsedTimestamp": "2023-11-30T16:44:37.681Z"
  },
  {
    "unformatted": "קרן קיימת 14 ירושלים, תיכון גמנסיה ירושלים",
    "location": {
      "lat": 31.7945523,
      "lng": 35.1439269
    },
    "formatted": "קרן קיימת 14, מבשרת ציון, ישראל",
    "city": "ירושלים",
    "lastUsedTimestamp": "2023-12-06T14:25:10.542Z"
  },
  {
    "unformatted": "צאלון 1 מודיעין, פאלאס דיור מוגן",
    "location": {
      "lat": 31.9084403,
      "lng": 35.0140037
    },
    "formatted": "צאלון 1, מודיעין מכבים רעות, 7178542, ישראל",
    "city": "מודיעין",
    "lastUsedTimestamp": "2023-12-03T16:37:01.101Z"
  },
  {
    "unformatted": "בי\"ס תיכון חורפיש",
    "location": {
      "lat": 33.016688,
      "lng": 35.347106
    },
    "formatted": "חורפיש, ישראל",
    "city": "בי\"ס תיכון חורפיש",
    "lastUsedTimestamp": "2023-11-29T14:33:13.383Z"
  },
  {
    "unformatted": "ים המלח בתי מלון, מלון נבו",
    "location": {
      "lat": 31.5590287,
      "lng": 35.4731895
    },
    "formatted": "ים המלח",
    "city": "ים המלח בתי מלון",
    "lastUsedTimestamp": "2023-11-30T16:44:37.681Z"
  },
  {
    "unformatted": "דרך הבנים 20 פרדס חנה כרכור, בית יד לבנים",
    "location": {
      "lat": 32.4754327,
      "lng": 34.9738236
    },
    "formatted": "פרדס חנה כרכור, ישראל",
    "city": "פרדס חנה כרכור",
    "lastUsedTimestamp": "2023-11-28T13:52:27.888Z"
  },
  {
    "unformatted": "אהבת ישראל 26 כוכב יעקב, אולם נוף ציון ישוב תל ציון",
    "location": {
      "lat": 31.8781964,
      "lng": 35.2391278
    },
    "formatted": "אהבת ישראל 26, כוכב יעקב",
    "city": "כוכב יעקב",
    "lastUsedTimestamp": "2023-12-17T21:52:36.603Z"
  },
  {
    "unformatted": "סולם אלדד 1 קרית ארבע, מתנ\"ס קרית ארבע",
    "location": {
      "lat": 31.52813,
      "lng": 35.12016
    },
    "formatted": "סולם אלדד 1, קרית ארבע",
    "city": "קרית ארבע",
    "lastUsedTimestamp": "2023-12-10T10:08:22.171Z"
  },
  {
    "unformatted": "בית יוסף 68 קרית גת, מתנ\"ס מעלה",
    "location": {
      "lat": 31.6189178,
      "lng": 34.754242
    },
    "formatted": "בית יוסף 68, קרית גת, ישראל",
    "city": "קרית גת",
    "lastUsedTimestamp": "2023-12-19T21:52:39.402Z"
  },
  {
    "unformatted": "אריה בראון 3 פתח תקווה, בי\"ס גולדה פתח תקווה",
    "location": {
      "lat": 32.1033559,
      "lng": 34.8776351
    },
    "formatted": "אריה בראון 3, פתח תקווה, ישראל",
    "city": "פתח תקווה",
    "lastUsedTimestamp": "2023-12-04T13:21:14.512Z"
  },
  {
    "unformatted": "יצחק רבין 1 פתח תקווה, במתחם גלובל טאוור בקומת מסחר - בחנות ליד ארומה",
    "location": {
      "lat": 32.0659185,
      "lng": 34.8639255
    },
    "formatted": "יצחק רבין 1, קרית אונו, ישראל",
    "city": "פתח תקווה",
    "lastUsedTimestamp": "2023-12-07T13:00:10.040Z"
  },
  {
    "unformatted": "רמת גן, מלון כפר המכביה - אולם ריימן מערב",
    "location": {
      "lat": 32.068424,
      "lng": 34.824785
    },
    "formatted": "רמת גן, ישראל",
    "city": "רמת גן",
    "lastUsedTimestamp": "2023-12-06T14:25:10.543Z"
  },
  {
    "unformatted": "נתיב האור 1 חיפה, קופ\"ח מכבי",
    "location": {
      "lat": 32.7877359,
      "lng": 34.9654477
    },
    "formatted": "נתיב האור 1, חיפה, ישראל",
    "city": "חיפה",
    "lastUsedTimestamp": "2023-12-04T13:21:14.512Z"
  },
  {
    "unformatted": "וייצמן (מתחם דובק) 6 צפת, קופ\"ח מאוחדת קניון לב צפת",
    "location": {
      "lat": 32.957648,
      "lng": 35.497796
    },
    "formatted": "חיים וייצמן 6, צפת, ישראל",
    "city": "צפת",
    "lastUsedTimestamp": "2023-12-03T16:37:01.101Z"
  },
  {
    "unformatted": "אחוזת בית 2 תל אביב יפו, הבורסה לניירות ערך",
    "location": {
      "lat": 32.0643377,
      "lng": 34.7703709
    },
    "formatted": "אחוזת בית 2, תל אביב-יפו, 6525216, ישראל",
    "city": "תל אביב יפו",
    "lastUsedTimestamp": "2023-12-04T13:21:14.512Z"
  },
  {
    "unformatted": "ירושלים, תיכון חקלאי עין כרם",
    "location": {
      "lat": 31.7778391,
      "lng": 35.1535519
    },
    "formatted": "ישראל",
    "city": "ירושלים",
    "lastUsedTimestamp": "2023-12-04T13:21:14.511Z"
  },
  {
    "unformatted": "יבנה, בבית כנסת צמוד לחדר אוכל",
    "location": {
      "lat": 31.87535339999999,
      "lng": 34.7350096
    },
    "formatted": "יבנה, ישראל",
    "city": "יבנה",
    "lastUsedTimestamp": "2023-12-05T14:26:04.364Z"
  },
  {
    "unformatted": "נצרת, בי\"ח צרפתי נצרת",
    "location": {
      "lat": 32.6994584,
      "lng": 35.2935446
    },
    "formatted": "ואדי אל-ג'וואני 10, נצרת, ישראל",
    "city": "נצרת",
    "lastUsedTimestamp": "2023-12-05T14:26:04.362Z"
  },
  {
    "unformatted": "גזית, חדר אוכל",
    "location": {
      "lat": 32.639307,
      "lng": 35.446239
    },
    "formatted": "גזית, ישראל",
    "city": "גזית",
    "lastUsedTimestamp": "2023-12-03T16:37:01.101Z"
  },
  {
    "unformatted": "זלמן שז\"ר 1 צפת, מתנ\"ס סקטר",
    "location": {
      "lat": 32.9658813,
      "lng": 35.5042038
    },
    "formatted": "זלמן שז\"ר 1, צפת, ישראל",
    "city": "צפת",
    "lastUsedTimestamp": "2023-12-19T21:52:39.402Z"
  },
  {
    "unformatted": "כברי, מקלט מול קפה לקר",
    "location": {
      "lat": 33.0211944,
      "lng": 35.1486716
    },
    "formatted": "דרך אמירים כברי, כברי, 25120, ישראל",
    "city": "כברי",
    "lastUsedTimestamp": "2023-12-07T13:00:10.039Z"
  },
  {
    "unformatted": "קצביה",
    "location": {
      "lat": 33.44852903890945,
      "lng": 32.05693494134149
    },
    "formatted": "bad_address",
    "city": "",
    "lastUsedTimestamp": "2023-12-10T10:08:22.172Z"
  },
  {
    "unformatted": "כרכום 3 אלפי מנשה, חטיבת ביניים \"חצב\" בספריה",
    "location": {
      "lat": 32.1730243,
      "lng": 35.0150314
    },
    "formatted": "כרכום 3, אלפי מנשה",
    "city": "אלפי מנשה",
    "lastUsedTimestamp": "2023-12-07T13:00:10.040Z"
  },
  {
    "unformatted": "הארבעה 21 תל אביב יפו, טי אל וי פרטנרס",
    "location": {
      "lat": 32.0704496,
      "lng": 34.7870971
    },
    "formatted": "הארבעה 21, תל אביב-יפו, ישראל",
    "city": "תל אביב יפו",
    "lastUsedTimestamp": "2023-12-06T14:25:10.543Z"
  },
  {
    "unformatted": "משגב לדך 39 ירושלים, אולם מונטיפיורי שכונת הרובע היהודי",
    "location": {
      "lat": 31.7746593,
      "lng": 35.2327672
    },
    "formatted": "רחוב משגב לדך 39, ירושלים",
    "city": "ירושלים",
    "lastUsedTimestamp": "2023-12-06T14:25:10.543Z"
  },
  {
    "unformatted": "הדס 10 כפר ורדים, מרכז קהילתי",
    "location": {
      "lat": 33.0006713,
      "lng": 35.2611389
    },
    "formatted": "הדס 10, כפר ורדים, ישראל",
    "city": "כפר ורדים",
    "lastUsedTimestamp": "2023-12-10T10:08:22.170Z"
  },
  {
    "unformatted": "מודיעין 10 שוהם, בי\"ס שש נחשון שוהם",
    "location": {
      "lat": 31.992103379654765,
      "lng": 34.941779059189585
    },
    "formatted": "שוהם 10, מודיעין מכבים רעות, ישראל",
    "city": "שוהם",
    "lastUsedTimestamp": "2023-12-20T21:52:38.297Z"
  },
  {
    "unformatted": "סט. ג'ורג' 23 ירושלים, מלון עץ הזית",
    "location": {
      "lat": 31.7896094,
      "lng": 35.2280793
    },
    "formatted": "ירושלים",
    "city": "ירושלים",
    "lastUsedTimestamp": "2023-12-14T13:42:38.253Z"
  },
  {
    "unformatted": "קניון ים המלח",
    "location": {
      "lat": 31.1992653,
      "lng": 35.36403810000001
    },
    "formatted": "ים המלח, עין בוקק, ישראל",
    "city": "קניון ים המלח",
    "lastUsedTimestamp": "2023-12-07T13:00:10.040Z"
  },
  {
    "unformatted": "שדרות אליהו 2 מזכרת בתיה, מרכז קהילתי מפגשים",
    "location": {
      "lat": 31.85472913709122,
      "lng": 34.84086675346331
    },
    "formatted": "שדרות אליהו 2, מזכרת בתיה, ישראל",
    "city": "מזכרת בתיה",
    "lastUsedTimestamp": "2023-12-26T20:08:40.242Z"
  },
  {
    "unformatted": "בי\"ס תיכון פקיעין",
    "location": {
      "lat": 32.9344991,
      "lng": 35.2591193
    },
    "formatted": "דיר אל-אסד, ישראל",
    "city": "בי\"ס תיכון פקיעין",
    "lastUsedTimestamp": "2023-12-14T13:42:38.252Z"
  },
  {
    "unformatted": "הרוקמים 1 חולון, בתחנת מד\"א חולון, - תחנת מד\"א",
    "location": {
      "lat": 32.01079717106096,
      "lng": 34.79731848820997
    },
    "formatted": "הרוקמים, חולון, ישראל",
    "city": "חולון",
    "lastUsedTimestamp": "2024-02-05T12:56:08.392Z"
  },
  {
    "unformatted": "הברוש 13, עץ אפרים",
    "location": {
      "lat": 32.1198707,
      "lng": 35.0471608
    },
    "formatted": "הברוש 13, עץ אפרים",
    "city": "הברוש 13, עץ אפרים",
    "lastUsedTimestamp": "2023-12-18T21:52:37.129Z"
  },
  {
    "unformatted": "פארן 12 ירושלים, קופת חולים כללית - רמת אשכול",
    "location": {
      "lat": 31.8012181,
      "lng": 35.2262227
    },
    "formatted": "פארן 12, ירושלים",
    "city": "ירושלים",
    "lastUsedTimestamp": "2023-12-12T18:50:14.015Z"
  },
  {
    "unformatted": "ברוכין, באולם חרמון רב תכלתי",
    "location": {
      "lat": 32.082231,
      "lng": 35.094113
    },
    "formatted": "ברוכין",
    "city": "ברוכין",
    "lastUsedTimestamp": "2023-12-13T11:25:55.270Z"
  },
  {
    "unformatted": "נאות מרדכי, מקלט עילי מאחורי המרפאה",
    "location": {
      "lat": 33.159785,
      "lng": 35.595602
    },
    "formatted": "נאות מרדכי, ישראל",
    "city": "נאות מרדכי",
    "lastUsedTimestamp": "2023-12-07T13:00:10.039Z"
  },
  {
    "unformatted": "שולמית 3 נתניה, מלון אל ים",
    "location": {
      "lat": 32.269443,
      "lng": 34.8372791
    },
    "formatted": "שולמית 3, נתניה, 4266007, ישראל",
    "city": "נתניה",
    "lastUsedTimestamp": "2023-12-10T10:08:22.170Z"
  },
  {
    "unformatted": "משה שרת 1 ירושלים, מכינת אור ירושלים",
    "location": {
      "lat": 31.7566796,
      "lng": 35.1833727
    },
    "formatted": "משה שרת 1, ירושלים, 9692086, ישראל",
    "city": "ירושלים",
    "lastUsedTimestamp": "2023-12-10T10:08:22.171Z"
  },
  {
    "unformatted": "מועצה אזורית עמק המעיינות בבית הנוער מרכז עידן",
    "location": {
      "lat": 32.493809,
      "lng": 35.51263
    },
    "formatted": "מרכז עידן, ישראל",
    "city": "מועצה אזורית עמק המעיינות בבית הנוער מרכז עידן",
    "lastUsedTimestamp": "2023-12-10T10:08:22.169Z"
  },
  {
    "unformatted": "שדרות הבנים 117 מגדל העמק, תחנת מד\"א מגדל העמק, - תחנת מד\"א",
    "location": {
      "lat": 32.6746,
      "lng": 35.250368
    },
    "formatted": "שדרות הבנים 117, מגדל העמק, ישראל",
    "city": "מגדל העמק",
    "lastUsedTimestamp": "2023-12-15T21:52:28.880Z"
  },
  {
    "unformatted": "ביג יקנעם בכניסה",
    "location": {
      "lat": 32.6426784,
      "lng": 35.0927494
    },
    "formatted": "שדרות יצחק רבין 9, יוקנעם עילית, ישראל",
    "city": "ביג יקנעם בכניסה",
    "lastUsedTimestamp": "2024-01-12T21:52:39.194Z"
  },
  {
    "unformatted": "המכבים 30 פתח תקווה, תחנת מד\"א, - תחנת מד\"א",
    "location": {
      "lat": 32.09768096251129,
      "lng": 34.88658660293206
    },
    "formatted": "המכבים 30 פתח תקווה",
    "city": "פתח תקווה",
    "lastUsedTimestamp": "2024-02-02T21:52:34.519Z"
  },
  {
    "unformatted": "משמר העמק, בחברותא",
    "location": {
      "lat": 32.612009589392976,
      "lng": 35.14126706440931
    },
    "formatted": "משמר העמק",
    "city": "",
    "lastUsedTimestamp": "2023-12-14T13:42:38.252Z"
  },
  {
    "unformatted": "ז'בוטינסקי 9 בני ברק, חברת cbre",
    "location": {
      "lat": 32.09377799804741,
      "lng": 34.82476495344066
    },
    "formatted": "ז'בוטינסקי 9 בני ברק, חברת cbre",
    "city": "בני ברק",
    "lastUsedTimestamp": "2023-12-13T11:25:55.270Z"
  },
  {
    "unformatted": "אבא הלל 3 רמת גן, בית הראל",
    "location": {
      "lat": 32.08385971885867,
      "lng": 34.80322339119204
    },
    "formatted": "אבא הלל 3 רמת גן",
    "city": "",
    "lastUsedTimestamp": "2023-12-17T21:52:36.603Z"
  },
  {
    "unformatted": "דוד אלעזר 3 תל אביב יפו, במתחם שרונה",
    "location": {
      "lat": 32.07321021745453,
      "lng": 34.788297247114734
    },
    "formatted": "דוד אלעזר 3 תל אביב יפו",
    "city": "תל אביב יפו",
    "lastUsedTimestamp": "2023-12-13T11:25:55.270Z"
  },
  {
    "unformatted": "דבוריה, במתנ\"ס החדש דבוריה",
    "location": {
      "lat": 32.690960849010885,
      "lng": 35.36601751676079
    },
    "formatted": "דבוריה מתנס",
    "city": "",
    "lastUsedTimestamp": "2023-12-13T11:25:55.269Z"
  },
  {
    "unformatted": "כפר כנא, מול המועצה מקומית כפר כנא",
    "location": {
      "lat": 32.748049223698104,
      "lng": 35.34372202601838
    },
    "formatted": "כפר כנא",
    "city": "",
    "lastUsedTimestamp": "2024-01-31T21:52:32.837Z"
  },
  {
    "unformatted": "ההגשמה אשדוד, אופק-מרכז להשכלת מבוגרים",
    "location": {
      "lat": 31.789135823996652,
      "lng": 34.64399918759679
    },
    "formatted": "הההגשמה אשדוד, אופק",
    "city": "",
    "lastUsedTimestamp": "2023-12-13T11:25:55.269Z"
  },
  {
    "unformatted": "שפיים, בחדר אוכל",
    "location": {
      "lat": 32.216586,
      "lng": 34.822409
    },
    "formatted": "שפיים, ישראל",
    "city": "שפיים",
    "lastUsedTimestamp": "2023-12-13T11:25:55.269Z"
  },
  {
    "unformatted": "אבני איתן, מרכז מורשת גוש קטיף באבני איתן",
    "location": {
      "lat": 32.824808,
      "lng": 35.765777
    },
    "formatted": "אבני איתן",
    "city": "אבני איתן",
    "lastUsedTimestamp": "2023-12-17T21:52:36.603Z"
  },
  {
    "unformatted": "מרום גולן, מועדון מרום גולן",
    "location": {
      "lat": 33.132583,
      "lng": 35.77707100000001
    },
    "formatted": "מרום גולן",
    "city": "מרום גולן",
    "lastUsedTimestamp": "2023-12-17T21:52:36.603Z"
  },
  {
    "unformatted": "קיבוץ נען",
    "location": {
      "lat": 31.883208,
      "lng": 34.859237
    },
    "formatted": "נען, ישראל",
    "city": "קיבוץ נען",
    "lastUsedTimestamp": "2023-12-24T21:52:31.766Z"
  },
  {
    "unformatted": "אריה 11 אשקלון, מתנ\"ס נווה אילן",
    "location": {
      "lat": 31.6638669,
      "lng": 34.5748123
    },
    "formatted": "אשקלון, ישראל",
    "city": "אשקלון",
    "lastUsedTimestamp": "2023-12-14T13:42:38.253Z"
  },
  {
    "unformatted": "ניידת התרמה ליד המסגד",
    "location": {
      "lat": 33.44852903890945,
      "lng": 32.05693494134149
    },
    "formatted": "bad_address",
    "city": "",
    "lastUsedTimestamp": "2024-01-02T12:14:58.133Z"
  },
  {
    "unformatted": "באר שבע, מגדל -7",
    "location": {
      "lat": 31.2451142,
      "lng": 34.7965846
    },
    "formatted": "שדרות יצחק רגר 33, באר שבע, ישראל",
    "city": "באר שבע",
    "lastUsedTimestamp": "2023-12-17T21:52:36.603Z"
  },
  {
    "unformatted": "חיבת ציון, בית כנסת",
    "location": {
      "lat": 32.39820570223411,
      "lng": 34.91261457618705
    },
    "formatted": "חיבת ציון, ישראל",
    "city": "חיבת ציון",
    "lastUsedTimestamp": "2024-02-05T12:56:08.391Z"
  },
  {
    "unformatted": "דרורית, כרמית",
    "location": {
      "lat": 31.330652,
      "lng": 34.895168
    },
    "formatted": "דרורית/כרמית, ישראל",
    "city": "דרורית, כרמית",
    "lastUsedTimestamp": "2023-12-15T21:52:28.880Z"
  },
  {
    "unformatted": "איילת השחר, מלון איילה איילת השחר",
    "location": {
      "lat": 33.02308513713076,
      "lng": 35.57409305680281
    },
    "formatted": "איילת השחר, ישראל",
    "city": "איילת השחר",
    "lastUsedTimestamp": "2023-12-18T21:52:37.128Z"
  },
  {
    "unformatted": "נווה דניאל, אולם כינוסים גדול",
    "location": {
      "lat": 31.67632,
      "lng": 35.143293
    },
    "formatted": "נווה דניאל",
    "city": "נווה דניאל",
    "lastUsedTimestamp": "2023-12-21T21:52:30.086Z"
  },
  {
    "unformatted": "הרוקמים 26 חולון, לובי בניין A",
    "location": {
      "lat": 32.0077569,
      "lng": 34.8006392
    },
    "formatted": "הרוקמים 26, חולון, ישראל",
    "city": "חולון",
    "lastUsedTimestamp": "2023-12-21T21:52:30.087Z"
  },
  {
    "unformatted": "גבעת אלה, מבואה אולם ספורט",
    "location": {
      "lat": 32.722007,
      "lng": 35.244822
    },
    "formatted": "גבעת אלה, ישראל",
    "city": "גבעת אלה",
    "lastUsedTimestamp": "2023-12-24T16:09:39.152Z"
  },
  {
    "unformatted": "שמואל הנציב 28 נתניה, בית העולה אמריקה וקנדה",
    "location": {
      "lat": 32.3309459815882,
      "lng": 34.856686485408645
    },
    "formatted": "נתניה, ישראל",
    "city": "נתניה",
    "lastUsedTimestamp": "2024-01-11T21:52:26.074Z"
  },
  {
    "unformatted": "משה דיין 135 ירושלים, מנהל קהילתי פסגת זאב",
    "location": {
      "lat": 31.8250179,
      "lng": 35.2396583
    },
    "formatted": "שדרות משה דיין 135, ירושלים",
    "city": "ירושלים",
    "lastUsedTimestamp": "2023-12-17T21:52:36.602Z"
  },
  {
    "unformatted": "עמק בית שאן 53 מודיעין, ישיבת הסדר מאיר הראל",
    "location": {
      "lat": 31.9143841,
      "lng": 34.9987125
    },
    "formatted": "עמק בית שאן 53, מודיעין מכבים רעות, ישראל",
    "city": "מודיעין",
    "lastUsedTimestamp": "2024-01-02T21:52:43.297Z"
  },
  {
    "unformatted": "גרונימן 11 תל אביב יפו, ביה\"ס אילנות - רמת אביב",
    "location": {
      "lat": 32.1065676,
      "lng": 34.798928
    },
    "formatted": "גרונימן 11, תל אביב-יפו, ישראל",
    "city": "תל אביב יפו",
    "lastUsedTimestamp": "2024-01-08T21:52:39.600Z"
  },
  {
    "unformatted": "מיכל 7 חיפה, בי\"ח כרמל - כניסה ראשית ליד המעליות",
    "location": {
      "lat": 32.7864002,
      "lng": 34.9805234
    },
    "formatted": "מיכ\"ל 7, חיפה, 3436212, ישראל",
    "city": "חיפה",
    "lastUsedTimestamp": "2023-12-20T21:52:38.298Z"
  },
  {
    "unformatted": "כיכר בן גוריון 1 קרית טבעון, במרכז ליד חומוס הארבעס",
    "location": {
      "lat": 32.722565,
      "lng": 35.1305159
    },
    "formatted": "בן גוריון 1, קרית טבעון, ישראל",
    "city": "קרית טבעון",
    "lastUsedTimestamp": "2024-01-08T21:52:39.600Z"
  },
  {
    "unformatted": "שרי ישראל 15 ירושלים, חברת מגדל ירושלים",
    "location": {
      "lat": 31.7891446,
      "lng": 35.2061448
    },
    "formatted": "שדרות שרי ישראל 15, ירושלים, ישראל",
    "city": "ירושלים",
    "lastUsedTimestamp": "2023-12-24T21:52:31.766Z"
  },
  {
    "unformatted": "צפת, ישיבת אור יקר",
    "location": {
      "lat": 32.966973216402906,
      "lng": 35.49198035047173
    },
    "formatted": "קרן היסוד 36, צפת, ישראל",
    "city": "צפת",
    "lastUsedTimestamp": "2023-12-18T21:52:37.129Z"
  },
  {
    "unformatted": "אושה, מועדון לחבר",
    "location": {
      "lat": 32.7962394,
      "lng": 35.1147203
    },
    "formatted": "אושה, ישראל",
    "city": "אושה",
    "lastUsedTimestamp": "2023-12-21T21:52:30.086Z"
  },
  {
    "unformatted": "חיפה, מתחם קניות חוצות המפרץ - ליד גרג",
    "location": {
      "lat": 32.8092185,
      "lng": 35.0557838
    },
    "formatted": "החרושת 8, חיפה, ישראל",
    "city": "חיפה",
    "lastUsedTimestamp": "2024-02-01T06:52:39.640Z"
  },
  {
    "unformatted": "מצפה אבי''ב, במועדון אביב - ליד המזכירות",
    "location": {
      "lat": 32.837951,
      "lng": 35.201059
    },
    "formatted": "מצפה אבי\"ב, ישראל",
    "city": "מצפה אבי''ב",
    "lastUsedTimestamp": "2023-12-21T21:52:30.086Z"
  },
  {
    "unformatted": "תל אביב יפו, בקניון עזריאלי תל אביב בלובי הכניסה בשער קפלן",
    "location": {
      "lat": 32.07373854959996,
      "lng": 34.79099355505527
    },
    "formatted": "שער קפלן, ארניה אסוולדו 6, תל אביב-יפו, ישראל",
    "city": "תל אביב יפו",
    "lastUsedTimestamp": "2024-01-28T21:52:18.286Z"
  },
  {
    "unformatted": "עתיר ידע 5 ב כפר סבא, חברת אלבה",
    "location": {
      "lat": 32.1646432,
      "lng": 34.9298278
    },
    "formatted": "Atir Yeda St 5 ב, Kefar Sava, 4464305, ישראל",
    "city": "כפר סבא",
    "lastUsedTimestamp": "2023-12-24T21:52:31.767Z"
  },
  {
    "unformatted": "אכסאל, ליד בית מרקחת מערוף פארם",
    "location": {
      "lat": 32.682085,
      "lng": 35.320743
    },
    "formatted": "איכסאל, ישראל",
    "city": "אכסאל",
    "lastUsedTimestamp": "2024-01-16T21:52:43.991Z"
  },
  {
    "unformatted": "פלוגת מילואים מוצב אדוריים",
    "location": {
      "lat": 31.501789479678052,
      "lng": 35.02268252618174
    },
    "formatted": "bad_address",
    "city": "",
    "lastUsedTimestamp": "2023-12-24T09:42:37.109Z"
  },
  {
    "unformatted": "מועדון",
    "location": {
      "lat": 33.44852903890945,
      "lng": 32.05693494134149
    },
    "formatted": "bad_address",
    "city": "",
    "lastUsedTimestamp": "2023-12-24T12:14:01.919Z"
  },
  {
    "unformatted": "מועדון הנוער ישוב ניצן",
    "location": {
      "lat": 31.73931294547719,
      "lng": 34.63142599987827
    },
    "formatted": "bad_address",
    "city": "",
    "lastUsedTimestamp": "2023-12-28T21:52:34.866Z"
  },
  {
    "unformatted": "חוות יאיר, במועדון",
    "location": {
      "lat": 32.145289,
      "lng": 35.104794
    },
    "formatted": "חוות יאיר, יקיר",
    "city": "חוות יאיר",
    "lastUsedTimestamp": "2023-12-28T21:52:34.866Z"
  },
  {
    "unformatted": "שנקר 5 הרצליה, גב ים",
    "location": {
      "lat": 32.1595591,
      "lng": 34.8095842
    },
    "formatted": "רחוב אריה שנקר 5, הרצליה, ישראל",
    "city": "הרצליה",
    "lastUsedTimestamp": "2023-12-20T21:52:38.298Z"
  },
  {
    "unformatted": "המדע 10 הרצליה, חזית גב ים הרצליה צפון",
    "location": {
      "lat": 32.16667113684909,
      "lng": 34.81342596102003
    },
    "formatted": "משכית 12, הרצליה, ישראל",
    "city": "הרצליה",
    "lastUsedTimestamp": "2023-12-19T21:52:39.402Z"
  },
  {
    "unformatted": "נווה דניאל, ישיבת מקור חיים נווה דניאל",
    "location": {
      "lat": 31.6487795,
      "lng": 35.1158519
    },
    "formatted": "J4X8+G89, כפר עציון, ירושלים",
    "city": "נווה דניאל",
    "lastUsedTimestamp": "2024-01-03T21:52:40.061Z"
  },
  {
    "unformatted": "נגוהות, מועדון ישוב נגוהות",
    "location": {
      "lat": 31.493077,
      "lng": 34.983347
    },
    "formatted": "נגוהות",
    "city": "נגוהות",
    "lastUsedTimestamp": "2023-12-28T21:52:34.866Z"
  },
  {
    "unformatted": "ראש צורים, בבית המדרש של האולפנה קיבוץ ראש צורים",
    "location": {
      "lat": 31.66779099999999,
      "lng": 35.125288
    },
    "formatted": "ראש צורים",
    "city": "ראש צורים",
    "lastUsedTimestamp": "2023-12-28T21:52:34.866Z"
  },
  {
    "unformatted": "קרית שמונה, מלון סלינה כנרת",
    "location": {
      "lat": 33.207933,
      "lng": 35.570246
    },
    "formatted": "קרית שמונה, ישראל",
    "city": "קרית שמונה",
    "lastUsedTimestamp": "2023-12-18T11:34:01.557Z"
  },
  {
    "unformatted": "מגדל, מלון סלינה כנרת",
    "location": {
      "lat": 32.8320299,
      "lng": 35.514054
    },
    "formatted": "Plot 13, Migdal, ישראל",
    "city": "מגדל",
    "lastUsedTimestamp": "2023-12-20T21:52:38.297Z"
  },
  {
    "unformatted": "נחל שמשון 2 בית שמש, מרכז תפארת, רמת בית שמש",
    "location": {
      "lat": 31.7143955,
      "lng": 35.0002136
    },
    "formatted": "נחל שמשון 2, בית שמש, ישראל",
    "city": "בית שמש",
    "lastUsedTimestamp": "2023-12-18T14:35:11.173Z"
  },
  {
    "unformatted": "גבת, חדר אוכל",
    "location": {
      "lat": 32.6765596,
      "lng": 35.2118452
    },
    "formatted": "גבת, ישראל",
    "city": "גבת",
    "lastUsedTimestamp": "2024-01-18T21:52:31.020Z"
  },
  {
    "unformatted": "נתיב הל''ה, בית הל\"ה קיבוץ נתיב הל\"ה",
    "location": {
      "lat": 31.687184,
      "lng": 34.982523
    },
    "formatted": "נתיב הל\"ה 1, נתיב הל\"ה, ישראל",
    "city": "נתיב הל''ה",
    "lastUsedTimestamp": "2023-12-22T21:52:23.461Z"
  },
  {
    "unformatted": "דרך מנחם בגין 121 תל אביב יפו, איירונסורס",
    "location": {
      "lat": 32.0720672,
      "lng": 34.7888183
    },
    "formatted": "דרך מנחם בגין 121, תל אביב-יפו, ישראל",
    "city": "תל אביב יפו",
    "lastUsedTimestamp": "2023-12-25T21:52:33.176Z"
  },
  {
    "unformatted": "שדה אליהו, בית תרבות",
    "location": {
      "lat": 32.43924380000001,
      "lng": 35.5137533
    },
    "formatted": "שדה אליהו, ישראל",
    "city": "שדה אליהו",
    "lastUsedTimestamp": "2023-12-26T20:08:40.242Z"
  },
  {
    "unformatted": "הלל יפה 1 חדרה, מרכז סיוע מתנדבי חדרה",
    "location": {
      "lat": 32.4332201,
      "lng": 34.9155917
    },
    "formatted": "הלל יפה 1, חדרה, ישראל",
    "city": "חדרה",
    "lastUsedTimestamp": "2023-12-26T08:43:08.652Z"
  },
  {
    "unformatted": "כוכב השחר, באולם שמחות הקטן ישוב כוכב השחר",
    "location": {
      "lat": 31.960264,
      "lng": 35.349421
    },
    "formatted": "כוכב השחר",
    "city": "כוכב השחר",
    "lastUsedTimestamp": "2023-12-27T21:52:33.503Z"
  },
  {
    "unformatted": "ירושלים, מועדון בפיקוד מרכז",
    "location": {
      "lat": 31.8419803,
      "lng": 35.2396134
    },
    "formatted": "שדרות, R6RQ+QRX, Jerusalem",
    "city": "ירושלים"
  },
  {
    "unformatted": "התחיה 1 אשקלון, במד\"א אשקלון, - תחנת מד\"א",
    "location": {
      "lat": 31.6599003,
      "lng": 34.5893259
    },
    "formatted": "התחייה 1, אשקלון, ישראל",
    "city": "אשקלון",
    "lastUsedTimestamp": "2024-02-02T21:52:34.519Z"
  },
  {
    "unformatted": "חספין, ישיבת הגולן",
    "location": {
      "lat": 32.844045,
      "lng": 35.791689
    },
    "formatted": "רמת הגולן, חספין, 1292000",
    "city": "חספין",
    "lastUsedTimestamp": "2023-12-25T21:52:33.176Z"
  },
  {
    "unformatted": "תל עדשים, בית התרבות",
    "location": {
      "lat": 32.65736,
      "lng": 35.3024797
    },
    "formatted": "תל עדשים, ישראל",
    "city": "תל עדשים",
    "lastUsedTimestamp": "2023-12-28T21:52:34.865Z"
  },
  {
    "unformatted": "נטור, מועדון - נטור",
    "location": {
      "lat": 32.854068,
      "lng": 35.752574
    },
    "formatted": "נטור",
    "city": "נטור",
    "lastUsedTimestamp": "2023-12-25T21:52:33.176Z"
  },
  {
    "unformatted": "ד.נ אשרת בן עמי, מועדון",
    "location": {
      "lat": 33.0034860034233,
      "lng": 35.12096295619137
    },
    "formatted": "bad_address",
    "city": "",
    "lastUsedTimestamp": "2023-12-24T21:52:31.767Z"
  },
  {
    "unformatted": "ריינה, ליד המועצה",
    "location": {
      "lat": 32.719924,
      "lng": 35.317654
    },
    "formatted": "ריינה, ישראל",
    "city": "ריינה",
    "lastUsedTimestamp": "2024-02-05T12:56:08.392Z"
  },
  {
    "unformatted": "שדמות מחולה, מועדון - שדמות מחולה",
    "location": {
      "lat": 32.347731,
      "lng": 35.530587
    },
    "formatted": "שדמות מחולה",
    "city": "שדמות מחולה",
    "lastUsedTimestamp": "2023-12-24T21:52:31.766Z"
  },
  {
    "unformatted": "פוריה עילית, מועדון הנוער בדרך התבור - פוריה עילית",
    "location": {
      "lat": 32.7340128,
      "lng": 35.5456016
    },
    "formatted": "פוריה עילית, ישראל",
    "city": "פוריה עילית",
    "lastUsedTimestamp": "2023-12-21T21:52:30.086Z"
  },
  {
    "unformatted": "גבעת חיים מאוחד, מועדון לחבר",
    "location": {
      "lat": 32.3906003,
      "lng": 34.9291876
    },
    "formatted": "גבעת חיים מאוחד, ישראל",
    "city": "גבעת חיים מאוחד",
    "lastUsedTimestamp": "2023-12-27T21:52:33.503Z"
  },
  {
    "unformatted": "ההגנה 13 ירושלים, מתנס קהילתי גבעה הצרפתית",
    "location": {
      "lat": 31.804375,
      "lng": 35.2390896
    },
    "formatted": "בר כוכבא, R63Q+QJ4, Jerusalem",
    "city": "ירושלים",
    "lastUsedTimestamp": "2023-12-26T20:08:40.242Z"
  },
  {
    "unformatted": "אחיה, מועדון הישוב אחיה",
    "location": {
      "lat": 32.06093645236989,
      "lng": 35.32684959021713
    },
    "formatted": "bad_address",
    "city": "",
    "lastUsedTimestamp": "2023-12-25T21:52:33.176Z"
  },
  {
    "unformatted": "דמודינה 24 תל אביב יפו, בי\"ס שורשים",
    "location": {
      "lat": 32.05318849175887,
      "lng": 34.77934966291207
    },
    "formatted": "מודינה 24, תל אביב-יפו, ישראל",
    "city": "תל אביב יפו",
    "lastUsedTimestamp": "2023-12-25T21:52:33.176Z"
  },
  {
    "unformatted": "דבוריה, בכניסה ליד בנק לאומי",
    "location": {
      "lat": 32.6943914,
      "lng": 35.3685008
    },
    "formatted": "דבוריה, ישראל",
    "city": "דבוריה",
    "lastUsedTimestamp": "2024-01-10T21:52:35.331Z"
  },
  {
    "unformatted": "עמוס עוז 3 הרצליה, צופים הרצליה",
    "location": {
      "lat": 32.174378,
      "lng": 34.8014292
    },
    "formatted": "הרצליה, ישראל",
    "city": "הרצליה",
    "lastUsedTimestamp": "2023-12-31T21:52:28.291Z"
  },
  {
    "unformatted": "הנביאים 44 אשדוד, משטרת מרחב לכיש",
    "location": {
      "lat": 31.7788646,
      "lng": 34.6503539
    },
    "formatted": "הנביאים 40, אשדוד, ישראל",
    "city": "אשדוד",
    "lastUsedTimestamp": "2023-12-24T21:52:31.767Z"
  },
  {
    "unformatted": "במרכז הכפר ליד מסעדת אחים מנדלאוי",
    "location": {
      "lat": 32.8097499,
      "lng": 35.26234609999999
    },
    "formatted": "המרכז-ככר המעיין, Kafr Manda, 1790700, ישראל",
    "city": "במרכז הכפר ליד מסעדת אחים מנדלאוי",
    "lastUsedTimestamp": "2024-01-21T21:52:28.087Z"
  },
  {
    "unformatted": "מעלה גמלא, מועדון - מעלה גמלא",
    "location": {
      "lat": 32.88825600000001,
      "lng": 35.685966
    },
    "formatted": "מעלה גמלא",
    "city": "מעלה גמלא",
    "lastUsedTimestamp": "2023-12-24T21:52:31.767Z"
  },
  {
    "unformatted": "מגדל עוז, ישיבת מחניים מגדל עוז",
    "location": {
      "lat": 31.640932,
      "lng": 35.143139
    },
    "formatted": "מגדל עוז",
    "city": "מגדל עוז",
    "lastUsedTimestamp": "2023-12-27T21:52:33.503Z"
  },
  {
    "unformatted": "רמות, מלון כינר",
    "location": {
      "lat": 32.8620021,
      "lng": 35.6457186
    },
    "formatted": "צפון מזרח הכנרת רמות, 12490",
    "city": "רמות",
    "lastUsedTimestamp": "2023-12-25T21:52:33.176Z"
  },
  {
    "unformatted": "היסוד 12 בת ים, אולם ספורט עופר",
    "location": {
      "lat": 32.00484309068783,
      "lng": 34.75054972975239
    },
    "formatted": "בת ים, ישראל",
    "city": "בת ים",
    "lastUsedTimestamp": "2023-12-31T21:52:28.291Z"
  },
  {
    "unformatted": "אברמסון 1 רחובות, אולם צורבא",
    "location": {
      "lat": 31.8917633,
      "lng": 34.8283951
    },
    "formatted": "מירון אברמסון 1, רחובות, ישראל",
    "city": "רחובות",
    "lastUsedTimestamp": "2024-01-04T21:52:30.938Z"
  },
  {
    "unformatted": "מרחביה מושב, בבית העם",
    "location": {
      "lat": 32.6047,
      "lng": 35.3081
    },
    "formatted": "מרחביה, ישראל",
    "city": "מרחביה מושב",
    "lastUsedTimestamp": "2024-01-02T21:52:43.297Z"
  },
  {
    "unformatted": "עלי, מתנ\"ס עלי",
    "location": {
      "lat": 32.071177,
      "lng": 35.266859
    },
    "formatted": "עלי",
    "city": "עלי",
    "lastUsedTimestamp": "2023-12-31T21:52:28.291Z"
  },
  {
    "unformatted": "ששת הימים 64 אילת, תרומה תחנה משטרת אילת במועדון",
    "location": {
      "lat": 29.569786,
      "lng": 34.9507118
    },
    "formatted": "שדרות ששת הימים 64, אילת, ישראל",
    "city": "אילת",
    "lastUsedTimestamp": "2023-12-26T10:26:33.786Z"
  },
  {
    "unformatted": "כנף, מועדון",
    "location": {
      "lat": 32.870412,
      "lng": 35.697897
    },
    "formatted": "כנף",
    "city": "כנף",
    "lastUsedTimestamp": "2024-01-08T21:52:39.600Z"
  },
  {
    "unformatted": "אלון הגליל, מועדון",
    "location": {
      "lat": 32.756874,
      "lng": 35.220294
    },
    "formatted": "אלון הגליל, ישראל",
    "city": "אלון הגליל",
    "lastUsedTimestamp": "2024-01-07T21:52:36.195Z"
  },
  {
    "unformatted": "נריה, מועדון רב תכליתי בכניסה לישוב נריה",
    "location": {
      "lat": 31.95370599999999,
      "lng": 35.127511
    },
    "formatted": "טלמון ב'",
    "city": "נריה",
    "lastUsedTimestamp": "2024-01-04T21:52:30.938Z"
  },
  {
    "unformatted": "ששת הימים 33 רעננה, בית הכנסת אריאל רעננה",
    "location": {
      "lat": 32.181837,
      "lng": 34.882891
    },
    "formatted": "ששת הימים 33, רעננה, ישראל",
    "city": "רעננה",
    "lastUsedTimestamp": "2024-01-01T21:52:19.960Z"
  },
  {
    "unformatted": "טבריה, מלון קיסר - אולם אולימפוס",
    "location": {
      "lat": 32.7852474,
      "lng": 35.5417369
    },
    "formatted": "הבנים 100, טבריה, ישראל",
    "city": "טבריה",
    "lastUsedTimestamp": "2023-12-28T21:52:34.866Z"
  },
  {
    "unformatted": "עצמון שגב, מועדון",
    "location": {
      "lat": 32.8663831,
      "lng": 35.2512684
    },
    "formatted": "עצמון שגב, ישראל",
    "city": "עצמון שגב",
    "lastUsedTimestamp": "2023-12-27T21:52:33.503Z"
  },
  {
    "unformatted": "צה\"ל 35 חדרה, מתחם קניות מיקס חדרה ליד יינות ביתן",
    "location": {
      "lat": 32.4415359,
      "lng": 34.9301834
    },
    "formatted": "מתחם מיקס, Tsahal St 35, Hadera, 3822044, ישראל",
    "city": "חדרה",
    "lastUsedTimestamp": "2024-01-21T07:07:40.047Z"
  },
  {
    "unformatted": "רמת דוד, חדר אוכל",
    "location": {
      "lat": 32.678991,
      "lng": 35.20403599999999
    },
    "formatted": "רמת דוד, ישראל",
    "city": "רמת דוד",
    "lastUsedTimestamp": "2024-01-02T21:52:43.297Z"
  },
  {
    "unformatted": "גבעת אלה, ברמוזה",
    "location": {
      "lat": 32.722007,
      "lng": 35.244822
    },
    "formatted": "גבעת אלה, ישראל",
    "city": "גבעת אלה",
    "lastUsedTimestamp": "2024-01-16T21:52:43.991Z"
  },
  {
    "unformatted": "דולב, אולם שמחות-שכונת הדגל ישוב דולב",
    "location": {
      "lat": 31.9263057,
      "lng": 35.1360397
    },
    "formatted": "W4GP+GCF, דולב",
    "city": "דולב",
    "lastUsedTimestamp": "2024-01-11T21:52:26.074Z"
  },
  {
    "unformatted": "בית אלפא, מועדון",
    "location": {
      "lat": 32.5155772,
      "lng": 35.4294417
    },